[
 {
   "CONAME": "Gene Pike Middle School",
   "STREET": "Texan Dr",
   "CITY": "Justin",
   "STATE_NAME": "Texas",
   "ZIP": 76247,
   "NAICS": 61111007,
   "SIC": "821103",
   "EMPNUM": 85,
   "SALESVOL": 0,
   "DESC_": "Gene Pike Middle School, Texan Dr, Justin, Texas, 76247",
   "LATITUDE": 33.0265,
   "LONGITUDE": -97.3165
 },
 {
   "CONAME": "Northwest Alliance Academy",
   "STREET": "Highway 114",
   "CITY": "Justin",
   "STATE_NAME": "Texas",
   "ZIP": 76247,
   "NAICS": 61111007,
   "SIC": "821103",
   "EMPNUM": 10,
   "SALESVOL": 0,
   "DESC_": "Northwest Alliance Academy, Highway 114, Justin, Texas, 76247",
   "LATITUDE": 33.0329,
   "LONGITUDE": -97.3226
 },
 {
   "CONAME": "Northwest School Dist Admin",
   "STREET": "Texan Dr",
   "CITY": "Justin",
   "STATE_NAME": "Texas",
   "ZIP": 76247,
   "NAICS": 61111018,
   "SIC": "821120",
   "EMPNUM": 118,
   "SALESVOL": 0,
   "DESC_": "Northwest School Dist Admin, Texan Dr, Justin, Texas, 76247",
   "LATITUDE": 33.0302,
   "LONGITUDE": -97.3195
 },
 {
   "CONAME": "John M Tidwell Middle School",
   "STREET": "Haslet Roanoke Rd",
   "CITY": "Roanoke",
   "STATE_NAME": "Texas",
   "ZIP": 76262,
   "NAICS": 61111007,
   "SIC": "821103",
   "EMPNUM": 100,
   "SALESVOL": 0,
   "DESC_": "John M Tidwell Middle School, Haslet Roanoke Rd, Roanoke, Texas, 76262",
   "LATITUDE": 32.9807,
   "LONGITUDE": -97.2774
 },
 {
   "CONAME": "Tidwell Middle School",
   "STREET": "Haslet Roanoke Rd",
   "CITY": "Roanoke",
   "STATE_NAME": "Texas",
   "ZIP": 76262,
   "NAICS": 61111007,
   "SIC": "821103",
   "EMPNUM": 80,
   "SALESVOL": 0,
   "DESC_": "Tidwell Middle School, Haslet Roanoke Rd, Roanoke, Texas, 76262",
   "LATITUDE": 32.9807,
   "LONGITUDE": -97.2774
 },
 {
   "CONAME": "Concordia Academy",
   "STREET": "Cleveland Gibbs Rd",
   "CITY": "Northlake",
   "STATE_NAME": "Texas",
   "ZIP": 76262,
   "NAICS": 61111007,
   "SIC": "821103",
   "EMPNUM": 5,
   "SALESVOL": 0,
   "DESC_": "Concordia Academy, Cleveland Gibbs Rd, Northlake, Texas, 76262",
   "LATITUDE": 33.0138,
   "LONGITUDE": -97.2645
 },
 {
   "CONAME": "Northwest Annex 9th Grade Ctr",
   "STREET": "Texan Dr",
   "CITY": "Justin",
   "STATE_NAME": "Texas",
   "ZIP": 76247,
   "NAICS": 61111007,
   "SIC": "821103",
   "EMPNUM": 72,
   "SALESVOL": 0,
   "DESC_": "Northwest Annex 9th Grade Ctr, Texan Dr, Justin, Texas, 76247",
   "LATITUDE": 33.0265,
   "LONGITUDE": -97.3165
 },
 {
   "CONAME": "W R Hatfield Intermediate Schl",
   "STREET": "Texan Dr",
   "CITY": "Justin",
   "STATE_NAME": "Texas",
   "ZIP": 76247,
   "NAICS": 61111007,
   "SIC": "821103",
   "EMPNUM": 72,
   "SALESVOL": 0,
   "DESC_": "W R Hatfield Intermediate Schl, Texan Dr, Justin, Texas, 76247",
   "LATITUDE": 33.0301,
   "LONGITUDE": -97.3176
 },
 {
   "CONAME": "Cox Elementary School",
   "STREET": "Litsey Rd",
   "CITY": "Roanoke",
   "STATE_NAME": "Texas",
   "ZIP": 76262,
   "NAICS": 61111007,
   "SIC": "821103",
   "EMPNUM": 55,
   "SALESVOL": 0,
   "DESC_": "Cox Elementary School, Litsey Rd, Roanoke, Texas, 76262",
   "LATITUDE": 33.0081,
   "LONGITUDE": -97.2508
 },
 {
   "CONAME": "J Lyndall Hughes Elementary",
   "STREET": "Lost Spurs Rd",
   "CITY": "Roanoke",
   "STATE_NAME": "Texas",
   "ZIP": 76262,
   "NAICS": 61111007,
   "SIC": "821103",
   "EMPNUM": 50,
   "SALESVOL": 0,
   "DESC_": "J Lyndall Hughes Elementary, Lost Spurs Rd, Roanoke, Texas, 76262",
   "LATITUDE": 32.9819,
   "LONGITUDE": -97.2861
 },
 {
   "CONAME": "W R Hatfield Elementary School",
   "STREET": "Texan Dr",
   "CITY": "Justin",
   "STATE_NAME": "Texas",
   "ZIP": 76247,
   "NAICS": 61111007,
   "SIC": "821103",
   "EMPNUM": 50,
   "SALESVOL": 0,
   "DESC_": "W R Hatfield Elementary School, Texan Dr, Justin, Texas, 76247",
   "LATITUDE": 33.0301,
   "LONGITUDE": -97.3176
 },
 {
   "CONAME": "T C Kid's Club-hughes Elmntry",
   "STREET": "Lost Spurs Rd",
   "CITY": "Roanoke",
   "STATE_NAME": "Texas",
   "ZIP": 76262,
   "NAICS": 61111007,
   "SIC": "821103",
   "EMPNUM": 23,
   "SALESVOL": 0,
   "DESC_": "T C Kid's Club-hughes Elmntry, Lost Spurs Rd, Roanoke, Texas, 76262",
   "LATITUDE": 32.9819,
   "LONGITUDE": -97.2861
 },
 {
   "CONAME": "Clara Love Elementary",
   "STREET": "Elementary Dr",
   "CITY": "Justin",
   "STATE_NAME": "Texas",
   "ZIP": 76247,
   "NAICS": 61111007,
   "SIC": "821103",
   "EMPNUM": 59,
   "SALESVOL": 0,
   "DESC_": "Clara Love Elementary, Elementary Dr, Justin, Texas, 76247",
   "LATITUDE": 33.0382,
   "LONGITUDE": -97.3233
 },
 {
   "CONAME": "Northwest Independent School",
   "STREET": "Elementary Dr",
   "CITY": "Justin",
   "STATE_NAME": "Texas",
   "ZIP": 76247,
   "NAICS": 61111007,
   "SIC": "821103",
   "EMPNUM": 22,
   "SALESVOL": 0,
   "DESC_": "Northwest Independent School, Elementary Dr, Justin, Texas, 76247",
   "LATITUDE": 33.0382,
   "LONGITUDE": -97.3233
 },
 {
   "CONAME": "Northwest High School",
   "STREET": "Texan Dr",
   "CITY": "Justin",
   "STATE_NAME": "Texas",
   "ZIP": 76247,
   "NAICS": 61111007,
   "SIC": "821103",
   "EMPNUM": 100,
   "SALESVOL": 0,
   "DESC_": "Northwest High School, Texan Dr, Justin, Texas, 76247",
   "LATITUDE": 33.0252,
   "LONGITUDE": -97.3129
 },
 {
   "CONAME": "Metroplex Chapel Academy",
   "STREET": "E Airport Fwy",
   "CITY": "Euless",
   "STATE_NAME": "Texas",
   "ZIP": 76039,
   "NAICS": 61111004,
   "SIC": "821101",
   "EMPNUM": 24,
   "SALESVOL": 0,
   "DESC_": "Metroplex Chapel Academy, E Airport Fwy, Euless, Texas, 76039",
   "LATITUDE": 32.8376,
   "LONGITUDE": -97.069
 },
 {
   "CONAME": "National High School Ptg Assn",
   "STREET": "Trinity Blvd",
   "CITY": "Fort Worth",
   "STATE_NAME": "Texas",
   "ZIP": 76118,
   "NAICS": 61111007,
   "SIC": "821103",
   "EMPNUM": 45,
   "SALESVOL": 0,
   "DESC_": "National High School Ptg Assn, Trinity Blvd, Fort Worth, Texas, 76118",
   "LATITUDE": 32.7979,
   "LONGITUDE": -97.2154
 },
 {
   "CONAME": "Lowery Road Elementary School",
   "STREET": "Lowery Rd",
   "CITY": "Fort Worth",
   "STATE_NAME": "Texas",
   "ZIP": 76120,
   "NAICS": 61111007,
   "SIC": "821103",
   "EMPNUM": 80,
   "SALESVOL": 0,
   "DESC_": "Lowery Road Elementary School, Lowery Rd, Fort Worth, Texas, 76120",
   "LATITUDE": 32.7721,
   "LONGITUDE": -97.1886
 },
 {
   "CONAME": "Ccc Academy",
   "STREET": "John T White Rd",
   "CITY": "Fort Worth",
   "STATE_NAME": "Texas",
   "ZIP": 76120,
   "NAICS": 61111007,
   "SIC": "821103",
   "EMPNUM": 21,
   "SALESVOL": 0,
   "DESC_": "Ccc Academy, John T White Rd, Fort Worth, Texas, 76120",
   "LATITUDE": 32.7694,
   "LONGITUDE": -97.1562
 },
 {
   "CONAME": "River Trails Elementary School",
   "STREET": "Elbe Trl",
   "CITY": "Fort Worth",
   "STATE_NAME": "Texas",
   "ZIP": 76118,
   "NAICS": 61111007,
   "SIC": "821103",
   "EMPNUM": 65,
   "SALESVOL": 0,
   "DESC_": "River Trails Elementary School, Elbe Trl, Fort Worth, Texas, 76118",
   "LATITUDE": 32.7977,
   "LONGITUDE": -97.1869
 },
 {
   "CONAME": "Al-hedayah Academy Inc",
   "STREET": "Randol Mill Rd",
   "CITY": "Fort Worth",
   "STATE_NAME": "Texas",
   "ZIP": 76120,
   "NAICS": 61111007,
   "SIC": "821103",
   "EMPNUM": 20,
   "SALESVOL": 0,
   "DESC_": "Al-hedayah Academy Inc, Randol Mill Rd, Fort Worth, Texas, 76120",
   "LATITUDE": 32.7684,
   "LONGITUDE": -97.1685
 },
 {
   "CONAME": "Smokin Guns Llc",
   "STREET": "Creede Trl",
   "CITY": "Fort Worth",
   "STATE_NAME": "Texas",
   "ZIP": 76118,
   "NAICS": 61111007,
   "SIC": "821103",
   "EMPNUM": 13,
   "SALESVOL": 0,
   "DESC_": "Smokin Guns Llc, Creede Trl, Fort Worth, Texas, 76118",
   "LATITUDE": 32.7961,
   "LONGITUDE": -97.1905
 },
 {
   "CONAME": "Chisholm Ridge Elementary",
   "STREET": "Running River Ln",
   "CITY": "Fort Worth",
   "STATE_NAME": "Texas",
   "ZIP": 76131,
   "NAICS": 61111007,
   "SIC": "821103",
   "EMPNUM": 75,
   "SALESVOL": 0,
   "DESC_": "Chisholm Ridge Elementary, Running River Ln, Fort Worth, Texas, 76131",
   "LATITUDE": 32.8894,
   "LONGITUDE": -97.3412
 },
 {
   "CONAME": "Basswood Elementary School",
   "STREET": "Clay Mountain Trl",
   "CITY": "Fort Worth",
   "STATE_NAME": "Texas",
   "ZIP": 76137,
   "NAICS": 61111007,
   "SIC": "821103",
   "EMPNUM": 50,
   "SALESVOL": 0,
   "DESC_": "Basswood Elementary School, Clay Mountain Trl, Fort Worth, Texas, 76137",
   "LATITUDE": 32.8708,
   "LONGITUDE": -97.3115
 },
 {
   "CONAME": "North Riverside Elementary",
   "STREET": "N Riverside Dr",
   "CITY": "Fort Worth",
   "STATE_NAME": "Texas",
   "ZIP": 76137,
   "NAICS": 61111007,
   "SIC": "821103",
   "EMPNUM": 80,
   "SALESVOL": 0,
   "DESC_": "North Riverside Elementary, N Riverside Dr, Fort Worth, Texas, 76137",
   "LATITUDE": 32.8814,
   "LONGITUDE": -97.3069
 },
 {
   "CONAME": "Northbrook Elementary School",
   "STREET": "Cantrell Sansom Rd",
   "CITY": "Fort Worth",
   "STATE_NAME": "Texas",
   "ZIP": 76131,
   "NAICS": 61111007,
   "SIC": "821103",
   "EMPNUM": 80,
   "SALESVOL": 0,
   "DESC_": "Northbrook Elementary School, Cantrell Sansom Rd, Fort Worth, Texas, 76131",
   "LATITUDE": 32.8468,
   "LONGITUDE": -97.3246
 },
 {
   "CONAME": "Scuba Diving Sch of Fort Worth",
   "STREET": "Southwest Blvd",
   "CITY": "Fort Worth",
   "STATE_NAME": "Texas",
   "ZIP": 76116,
   "NAICS": 61111007,
   "SIC": "821103",
   "EMPNUM": 4,
   "SALESVOL": 0,
   "DESC_": "Scuba Diving Sch of Fort Worth, Southwest Blvd, Fort Worth, Texas, 76116",
   "LATITUDE": 32.7166,
   "LONGITUDE": -97.442
 },
 {
   "CONAME": "Miss Endy's Christian Academy",
   "STREET": "Humbert Ave",
   "CITY": "Fort Worth",
   "STATE_NAME": "Texas",
   "ZIP": 76107,
   "NAICS": 61111007,
   "SIC": "821103",
   "EMPNUM": 6,
   "SALESVOL": 0,
   "DESC_": "Miss Endy's Christian Academy, Humbert Ave, Fort Worth, Texas, 76107",
   "LATITUDE": 32.7186,
   "LONGITUDE": -97.4116
 },
 {
   "CONAME": "Miss Endy's Christian Day Schl",
   "STREET": "Humbert Ave",
   "CITY": "Fort Worth",
   "STATE_NAME": "Texas",
   "ZIP": 76107,
   "NAICS": 61111004,
   "SIC": "821101",
   "EMPNUM": 5,
   "SALESVOL": 0,
   "DESC_": "Miss Endy's Christian Day Schl, Humbert Ave, Fort Worth, Texas, 76107",
   "LATITUDE": 32.7186,
   "LONGITUDE": -97.4119
 },
 {
   "CONAME": "Richard Milburn Academy",
   "STREET": "Camp Bowie Blvd",
   "CITY": "Fort Worth",
   "STATE_NAME": "Texas",
   "ZIP": 76116,
   "NAICS": 61111007,
   "SIC": "821103",
   "EMPNUM": 16,
   "SALESVOL": 0,
   "DESC_": "Richard Milburn Academy, Camp Bowie Blvd, Fort Worth, Texas, 76116",
   "LATITUDE": 32.7201,
   "LONGITUDE": -97.4345
 },
 {
   "CONAME": "Fort Worth Isd",
   "STREET": "Cumberland Rd",
   "CITY": "Fort Worth",
   "STATE_NAME": "Texas",
   "ZIP": 76116,
   "NAICS": 61111007,
   "SIC": "821103",
   "EMPNUM": 70,
   "SALESVOL": 0,
   "DESC_": "Fort Worth Isd, Cumberland Rd, Fort Worth, Texas, 76116",
   "LATITUDE": 32.7045,
   "LONGITUDE": -97.4276
 },
 {
   "CONAME": "Como Montessori",
   "STREET": "Littlepage St",
   "CITY": "Fort Worth",
   "STATE_NAME": "Texas",
   "ZIP": 76107,
   "NAICS": 61111007,
   "SIC": "821103",
   "EMPNUM": 50,
   "SALESVOL": 0,
   "DESC_": "Como Montessori, Littlepage St, Fort Worth, Texas, 76107",
   "LATITUDE": 32.7212,
   "LONGITUDE": -97.4107
 },
 {
   "CONAME": "Montessori Childrens House",
   "STREET": "Clayton Rd E",
   "CITY": "Fort Worth",
   "STATE_NAME": "Texas",
   "ZIP": 76116,
   "NAICS": 61111007,
   "SIC": "821103",
   "EMPNUM": 10,
   "SALESVOL": 0,
   "DESC_": "Montessori Childrens House, Clayton Rd E, Fort Worth, Texas, 76116",
   "LATITUDE": 32.7225,
   "LONGITUDE": -97.4273
 },
 {
   "CONAME": "Ridglea Hills Elementary Schl",
   "STREET": "Cumberland Rd",
   "CITY": "Fort Worth",
   "STATE_NAME": "Texas",
   "ZIP": 76116,
   "NAICS": 61111007,
   "SIC": "821103",
   "EMPNUM": 80,
   "SALESVOL": 0,
   "DESC_": "Ridglea Hills Elementary Schl, Cumberland Rd, Fort Worth, Texas, 76116",
   "LATITUDE": 32.7045,
   "LONGITUDE": -97.4276
 },
 {
   "CONAME": "Western Hills Elementary Schl",
   "STREET": "Laredo Dr",
   "CITY": "Fort Worth",
   "STATE_NAME": "Texas",
   "ZIP": 76116,
   "NAICS": 61111007,
   "SIC": "821103",
   "EMPNUM": 50,
   "SALESVOL": 0,
   "DESC_": "Western Hills Elementary Schl, Laredo Dr, Fort Worth, Texas, 76116",
   "LATITUDE": 32.735,
   "LONGITUDE": -97.4623
 },
 {
   "CONAME": "Western Hills Primary School",
   "STREET": "Mojave Trl",
   "CITY": "Fort Worth",
   "STATE_NAME": "Texas",
   "ZIP": 76116,
   "NAICS": 61111007,
   "SIC": "821103",
   "EMPNUM": 90,
   "SALESVOL": 0,
   "DESC_": "Western Hills Primary School, Mojave Trl, Fort Worth, Texas, 76116",
   "LATITUDE": 32.7347,
   "LONGITUDE": -97.4587
 },
 {
   "CONAME": "Willoughby House",
   "STREET": "W Elizabeth Ln",
   "CITY": "Fort Worth",
   "STATE_NAME": "Texas",
   "ZIP": 76116,
   "NAICS": 61111007,
   "SIC": "821103",
   "EMPNUM": 15,
   "SALESVOL": 0,
   "DESC_": "Willoughby House, W Elizabeth Ln, Fort Worth, Texas, 76116",
   "LATITUDE": 32.7251,
   "LONGITUDE": -97.4555
 },
 {
   "CONAME": "Mary Louise Phillips Elem Schl",
   "STREET": "Bigham Blvd",
   "CITY": "Benbrook",
   "STATE_NAME": "Texas",
   "ZIP": 76116,
   "NAICS": 61111007,
   "SIC": "821103",
   "EMPNUM": 72,
   "SALESVOL": 0,
   "DESC_": "Mary Louise Phillips Elem Schl, Bigham Blvd, Benbrook, Texas, 76116",
   "LATITUDE": 32.7314,
   "LONGITUDE": -97.4274
 },
 {
   "CONAME": "Holy Family Catholic School",
   "STREET": "Pershing Ave",
   "CITY": "Fort Worth",
   "STATE_NAME": "Texas",
   "ZIP": 76107,
   "NAICS": 61111007,
   "SIC": "821103",
   "EMPNUM": 25,
   "SALESVOL": 0,
   "DESC_": "Holy Family Catholic School, Pershing Ave, Fort Worth, Texas, 76107",
   "LATITUDE": 32.7367,
   "LONGITUDE": -97.4169
 },
 {
   "CONAME": "William Monnig Middle School",
   "STREET": "Bigham Blvd",
   "CITY": "Fort Worth",
   "STATE_NAME": "Texas",
   "ZIP": 76116,
   "NAICS": 61111007,
   "SIC": "821103",
   "EMPNUM": 80,
   "SALESVOL": 0,
   "DESC_": "William Monnig Middle School, Bigham Blvd, Fort Worth, Texas, 76116",
   "LATITUDE": 32.7296,
   "LONGITUDE": -97.4281
 },
 {
   "CONAME": "Premier High School",
   "STREET": "Camp Bowie Blvd",
   "CITY": "Fort Worth",
   "STATE_NAME": "Texas",
   "ZIP": 76116,
   "NAICS": 61111007,
   "SIC": "821103",
   "EMPNUM": 12,
   "SALESVOL": 0,
   "DESC_": "Premier High School, Camp Bowie Blvd, Fort Worth, Texas, 76116",
   "LATITUDE": 32.7245,
   "LONGITUDE": -97.423
 },
 {
   "CONAME": "Spanish Schoolhouse",
   "STREET": "Sunset Dr",
   "CITY": "Fort Worth",
   "STATE_NAME": "Texas",
   "ZIP": 76116,
   "NAICS": 61111001,
   "SIC": "821104",
   "EMPNUM": 2,
   "SALESVOL": 0,
   "DESC_": "Spanish Schoolhouse, Sunset Dr, Fort Worth, Texas, 76116",
   "LATITUDE": 32.7265,
   "LONGITUDE": -97.4166
 },
 {
   "CONAME": "St Andrew Catholic School",
   "STREET": "Dryden Rd",
   "CITY": "Fort Worth",
   "STATE_NAME": "Texas",
   "ZIP": 76109,
   "NAICS": 61111007,
   "SIC": "821103",
   "EMPNUM": 55,
   "SALESVOL": 0,
   "DESC_": "St Andrew Catholic School, Dryden Rd, Fort Worth, Texas, 76109",
   "LATITUDE": 32.6949,
   "LONGITUDE": -97.3633
 },
 {
   "CONAME": "Lady Margaret Roper School",
   "STREET": "Lubbock Ave",
   "CITY": "Fort Worth",
   "STATE_NAME": "Texas",
   "ZIP": 76109,
   "NAICS": 61111007,
   "SIC": "821103",
   "EMPNUM": 5,
   "SALESVOL": 0,
   "DESC_": "Lady Margaret Roper School, Lubbock Ave, Fort Worth, Texas, 76109",
   "LATITUDE": 32.7073,
   "LONGITUDE": -97.3566
 },
 {
   "CONAME": "Fort Worth Academy of Fine Art",
   "STREET": "S Hulen St",
   "CITY": "Fort Worth",
   "STATE_NAME": "Texas",
   "ZIP": 76109,
   "NAICS": 61111007,
   "SIC": "821103",
   "EMPNUM": 45,
   "SALESVOL": 0,
   "DESC_": "Fort Worth Academy of Fine Art, S Hulen St, Fort Worth, Texas, 76109",
   "LATITUDE": 32.691,
   "LONGITUDE": -97.3932
 },
 {
   "CONAME": "Mc Lean Middle School",
   "STREET": "Stadium Dr",
   "CITY": "Fort Worth",
   "STATE_NAME": "Texas",
   "ZIP": 76109,
   "NAICS": 61111007,
   "SIC": "821103",
   "EMPNUM": 80,
   "SALESVOL": 0,
   "DESC_": "Mc Lean Middle School, Stadium Dr, Fort Worth, Texas, 76109",
   "LATITUDE": 32.6933,
   "LONGITUDE": -97.3664
 },
 {
   "CONAME": "Fort Worth Isd",
   "STREET": "W Cantey St",
   "CITY": "Fort Worth",
   "STATE_NAME": "Texas",
   "ZIP": 76109,
   "NAICS": 61111007,
   "SIC": "821103",
   "EMPNUM": 22,
   "SALESVOL": 0,
   "DESC_": "Fort Worth Isd, W Cantey St, Fort Worth, Texas, 76109",
   "LATITUDE": 32.7126,
   "LONGITUDE": -97.3646
 },
 {
   "CONAME": "Fort Worth Independent Sch Dst",
   "STREET": "Stadium Dr",
   "CITY": "Fort Worth",
   "STATE_NAME": "Texas",
   "ZIP": 76109,
   "NAICS": 61111007,
   "SIC": "821103",
   "EMPNUM": 13,
   "SALESVOL": 0,
   "DESC_": "Fort Worth Independent Sch Dst, Stadium Dr, Fort Worth, Texas, 76109",
   "LATITUDE": 32.6933,
   "LONGITUDE": -97.3664
 },
 {
   "CONAME": "Tanglewood Elementary School",
   "STREET": "Overton Park Dr W",
   "CITY": "Fort Worth",
   "STATE_NAME": "Texas",
   "ZIP": 76109,
   "NAICS": 61111007,
   "SIC": "821103",
   "EMPNUM": 59,
   "SALESVOL": 0,
   "DESC_": "Tanglewood Elementary School, Overton Park Dr W, Fort Worth, Texas, 76109",
   "LATITUDE": 32.6995,
   "LONGITUDE": -97.3827
 },
 {
   "CONAME": "Joe Kelly Multi Grade Level",
   "STREET": "Overton Park Dr W",
   "CITY": "Fort Worth",
   "STATE_NAME": "Texas",
   "ZIP": 76109,
   "NAICS": 61111007,
   "SIC": "821103",
   "EMPNUM": 60,
   "SALESVOL": 0,
   "DESC_": "Joe Kelly Multi Grade Level, Overton Park Dr W, Fort Worth, Texas, 76109",
   "LATITUDE": 32.7056,
   "LONGITUDE": -97.3863
 },
 {
   "CONAME": "North Tx Elementary Sch",
   "STREET": "S Hulen St",
   "CITY": "Fort Worth",
   "STATE_NAME": "Texas",
   "ZIP": 76109,
   "NAICS": 61111007,
   "SIC": "821103",
   "EMPNUM": 55,
   "SALESVOL": 0,
   "DESC_": "North Tx Elementary Sch, S Hulen St, Fort Worth, Texas, 76109",
   "LATITUDE": 32.691,
   "LONGITUDE": -97.3932
 },
 {
   "CONAME": "Mba Graduate Career Svc Ctr",
   "STREET": "Lubbock",
   "CITY": "Fort Worth",
   "STATE_NAME": "Texas",
   "ZIP": 76129,
   "NAICS": 61111007,
   "SIC": "821103",
   "EMPNUM": 5,
   "SALESVOL": 0,
   "DESC_": "Mba Graduate Career Svc Ctr, Lubbock, Fort Worth, Texas, 76129",
   "LATITUDE": 32.7096,
   "LONGITUDE": -97.3605
 },
 {
   "CONAME": "Fort Worth Independent Sch",
   "STREET": "South Hills Ave",
   "CITY": "Benbrook",
   "STATE_NAME": "Texas",
   "ZIP": 76109,
   "NAICS": 61111007,
   "SIC": "821103",
   "EMPNUM": 13,
   "SALESVOL": 0,
   "DESC_": "Fort Worth Independent Sch, South Hills Ave, Benbrook, Texas, 76109",
   "LATITUDE": 32.6958,
   "LONGITUDE": -97.364
 },
 {
   "CONAME": "Como Elementary School",
   "STREET": "Horne St",
   "CITY": "Fort Worth",
   "STATE_NAME": "Texas",
   "ZIP": 76107,
   "NAICS": 61111007,
   "SIC": "821103",
   "EMPNUM": 65,
   "SALESVOL": 0,
   "DESC_": "Como Elementary School, Horne St, Fort Worth, Texas, 76107",
   "LATITUDE": 32.7212,
   "LONGITUDE": -97.409
 },
 {
   "CONAME": "Alice Carlson Applied Learning",
   "STREET": "W Cantey St",
   "CITY": "Fort Worth",
   "STATE_NAME": "Texas",
   "ZIP": 76109,
   "NAICS": 61111007,
   "SIC": "821103",
   "EMPNUM": 35,
   "SALESVOL": 0,
   "DESC_": "Alice Carlson Applied Learning, W Cantey St, Fort Worth, Texas, 76109",
   "LATITUDE": 32.7126,
   "LONGITUDE": -97.3646
 },
 {
   "CONAME": "Fort Worth Country Day School",
   "STREET": "Country Day Ln",
   "CITY": "Fort Worth",
   "STATE_NAME": "Texas",
   "ZIP": 76109,
   "NAICS": 61111013,
   "SIC": "821109",
   "EMPNUM": 230,
   "SALESVOL": 0,
   "DESC_": "Fort Worth Country Day School, Country Day Ln, Fort Worth, Texas, 76109",
   "LATITUDE": 32.693,
   "LONGITUDE": -97.4084
 },
 {
   "CONAME": "Weekday School",
   "STREET": "S University Dr",
   "CITY": "Fort Worth",
   "STATE_NAME": "Texas",
   "ZIP": 76109,
   "NAICS": 61111007,
   "SIC": "821103",
   "EMPNUM": 13,
   "SALESVOL": 0,
   "DESC_": "Weekday School, S University Dr, Fort Worth, Texas, 76109",
   "LATITUDE": 32.7124,
   "LONGITUDE": -97.3611
 },
 {
   "CONAME": "Texas Boys Choir Inc",
   "STREET": "S Hulen St",
   "CITY": "Fort Worth",
   "STATE_NAME": "Texas",
   "ZIP": 76109,
   "NAICS": 61111007,
   "SIC": "821103",
   "EMPNUM": 45,
   "SALESVOL": 0,
   "DESC_": "Texas Boys Choir Inc, S Hulen St, Fort Worth, Texas, 76109",
   "LATITUDE": 32.691,
   "LONGITUDE": -97.3932
 },
 {
   "CONAME": "Starpoint School",
   "STREET": "Stadium Dr",
   "CITY": "Fort Worth",
   "STATE_NAME": "Texas",
   "ZIP": 76109,
   "NAICS": 61111007,
   "SIC": "821103",
   "EMPNUM": 15,
   "SALESVOL": 0,
   "DESC_": "Starpoint School, Stadium Dr, Fort Worth, Texas, 76109",
   "LATITUDE": 32.7121,
   "LONGITUDE": -97.3655
 },
 {
   "CONAME": "Reading Friends",
   "STREET": "Pershing Ave",
   "CITY": "Fort Worth",
   "STATE_NAME": "Texas",
   "ZIP": 76107,
   "NAICS": 61111007,
   "SIC": "821103",
   "EMPNUM": 14,
   "SALESVOL": 0,
   "DESC_": "Reading Friends, Pershing Ave, Fort Worth, Texas, 76107",
   "LATITUDE": 32.7359,
   "LONGITUDE": -97.3995
 },
 {
   "CONAME": "Fort Worth Isd",
   "STREET": "West Fwy",
   "CITY": "Fort Worth",
   "STATE_NAME": "Texas",
   "ZIP": 76107,
   "NAICS": 61111007,
   "SIC": "821103",
   "EMPNUM": 22,
   "SALESVOL": 0,
   "DESC_": "Fort Worth Isd, West Fwy, Fort Worth, Texas, 76107",
   "LATITUDE": 32.7308,
   "LONGITUDE": -97.3859
 },
 {
   "CONAME": "Transition Center",
   "STREET": "El Campo Ave",
   "CITY": "Fort Worth",
   "STATE_NAME": "Texas",
   "ZIP": 76107,
   "NAICS": 61111007,
   "SIC": "821103",
   "EMPNUM": 36,
   "SALESVOL": 0,
   "DESC_": "Transition Center, El Campo Ave, Fort Worth, Texas, 76107",
   "LATITUDE": 32.7373,
   "LONGITUDE": -97.3961
 },
 {
   "CONAME": "Arlington Heights High School",
   "STREET": "West Fwy",
   "CITY": "Fort Worth",
   "STATE_NAME": "Texas",
   "ZIP": 76107,
   "NAICS": 61111007,
   "SIC": "821103",
   "EMPNUM": 200,
   "SALESVOL": 0,
   "DESC_": "Arlington Heights High School, West Fwy, Fort Worth, Texas, 76107",
   "LATITUDE": 32.7308,
   "LONGITUDE": -97.3859
 },
 {
   "CONAME": "Boulevard Heights School",
   "STREET": "El Campo Ave",
   "CITY": "Fort Worth",
   "STATE_NAME": "Texas",
   "ZIP": 76107,
   "NAICS": 61111007,
   "SIC": "821103",
   "EMPNUM": 52,
   "SALESVOL": 0,
   "DESC_": "Boulevard Heights School, El Campo Ave, Fort Worth, Texas, 76107",
   "LATITUDE": 32.7373,
   "LONGITUDE": -97.3961
 },
 {
   "CONAME": "South Hi Mt Elementary School",
   "STREET": "Birchman Ave",
   "CITY": "Fort Worth",
   "STATE_NAME": "Texas",
   "ZIP": 76107,
   "NAICS": 61111007,
   "SIC": "821103",
   "EMPNUM": 65,
   "SALESVOL": 0,
   "DESC_": "South Hi Mt Elementary School, Birchman Ave, Fort Worth, Texas, 76107",
   "LATITUDE": 32.734,
   "LONGITUDE": -97.3795
 },
 {
   "CONAME": "Texas Academy-biomedical Scncs",
   "STREET": "Valentine St",
   "CITY": "Fort Worth",
   "STATE_NAME": "Texas",
   "ZIP": 76107,
   "NAICS": 61111007,
   "SIC": "821103",
   "EMPNUM": 13,
   "SALESVOL": 0,
   "DESC_": "Texas Academy-biomedical Scncs, Valentine St, Fort Worth, Texas, 76107",
   "LATITUDE": 32.7318,
   "LONGITUDE": -97.3731
 },
 {
   "CONAME": "Stripling Middle School P T a",
   "STREET": "Clover Ln",
   "CITY": "Fort Worth",
   "STATE_NAME": "Texas",
   "ZIP": 76107,
   "NAICS": 61111007,
   "SIC": "821103",
   "EMPNUM": 100,
   "SALESVOL": 0,
   "DESC_": "Stripling Middle School P T a, Clover Ln, Fort Worth, Texas, 76107",
   "LATITUDE": 32.738,
   "LONGITUDE": -97.3792
 },
 {
   "CONAME": "North Hi Mt Elementary School",
   "STREET": "W 7th St",
   "CITY": "Fort Worth",
   "STATE_NAME": "Texas",
   "ZIP": 76107,
   "NAICS": 61111007,
   "SIC": "821103",
   "EMPNUM": 45,
   "SALESVOL": 0,
   "DESC_": "North Hi Mt Elementary School, W 7th St, Fort Worth, Texas, 76107",
   "LATITUDE": 32.7512,
   "LONGITUDE": -97.3742
 },
 {
   "CONAME": "Museum School",
   "STREET": "Montgomery St",
   "CITY": "Fort Worth",
   "STATE_NAME": "Texas",
   "ZIP": 76107,
   "NAICS": 61111007,
   "SIC": "821103",
   "EMPNUM": 13,
   "SALESVOL": 0,
   "DESC_": "Museum School, Montgomery St, Fort Worth, Texas, 76107",
   "LATITUDE": 32.7447,
   "LONGITUDE": -97.37
 },
 {
   "CONAME": "North High Mt Child Care",
   "STREET": "W 7th St",
   "CITY": "Fort Worth",
   "STATE_NAME": "Texas",
   "ZIP": 76107,
   "NAICS": 61111007,
   "SIC": "821103",
   "EMPNUM": 13,
   "SALESVOL": 0,
   "DESC_": "North High Mt Child Care, W 7th St, Fort Worth, Texas, 76107",
   "LATITUDE": 32.7512,
   "LONGITUDE": -97.3742
 },
 {
   "CONAME": "Marine Creek Elementary School",
   "STREET": "Huffines Blvd",
   "CITY": "Fort Worth",
   "STATE_NAME": "Texas",
   "ZIP": 76135,
   "NAICS": 61111007,
   "SIC": "821103",
   "EMPNUM": 100,
   "SALESVOL": 0,
   "DESC_": "Marine Creek Elementary School, Huffines Blvd, Fort Worth, Texas, 76135",
   "LATITUDE": 32.8249,
   "LONGITUDE": -97.4096
 },
 {
   "CONAME": "Casino Beach Golf Academy",
   "STREET": "Jacksboro Hwy",
   "CITY": "Fort Worth",
   "STATE_NAME": "Texas",
   "ZIP": 76135,
   "NAICS": 61111007,
   "SIC": "821103",
   "EMPNUM": 13,
   "SALESVOL": 0,
   "DESC_": "Casino Beach Golf Academy, Jacksboro Hwy, Fort Worth, Texas, 76135",
   "LATITUDE": 32.8228,
   "LONGITUDE": -97.4541
 },
 {
   "CONAME": "Texas Elementary Schl-the Arts",
   "STREET": "Village Pkwy",
   "CITY": "Fort Worth",
   "STATE_NAME": "Texas",
   "ZIP": 76134,
   "NAICS": 61111007,
   "SIC": "821103",
   "EMPNUM": 55,
   "SALESVOL": 0,
   "DESC_": "Texas Elementary Schl-the Arts, Village Pkwy, Fort Worth, Texas, 76134",
   "LATITUDE": 32.6488,
   "LONGITUDE": -97.3347
 },
 {
   "CONAME": "Texas School of the Arts",
   "STREET": "Village Pkwy",
   "CITY": "Fort Worth",
   "STATE_NAME": "Texas",
   "ZIP": 76134,
   "NAICS": 61111007,
   "SIC": "821103",
   "EMPNUM": 32,
   "SALESVOL": 0,
   "DESC_": "Texas School of the Arts, Village Pkwy, Fort Worth, Texas, 76134",
   "LATITUDE": 32.6488,
   "LONGITUDE": -97.3347
 },
 {
   "CONAME": "Pinnacle Academy of Fine Arts",
   "STREET": "James Ave",
   "CITY": "Fort Worth",
   "STATE_NAME": "Texas",
   "ZIP": 76115,
   "NAICS": 61111007,
   "SIC": "821103",
   "EMPNUM": 20,
   "SALESVOL": 0,
   "DESC_": "Pinnacle Academy of Fine Arts, James Ave, Fort Worth, Texas, 76115",
   "LATITUDE": 32.6728,
   "LONGITUDE": -97.3457
 },
 {
   "CONAME": "Christian Life Preparatory",
   "STREET": "South Fwy",
   "CITY": "Fort Worth",
   "STATE_NAME": "Texas",
   "ZIP": 76134,
   "NAICS": 61111007,
   "SIC": "821103",
   "EMPNUM": 35,
   "SALESVOL": 0,
   "DESC_": "Christian Life Preparatory, South Fwy, Fort Worth, Texas, 76134",
   "LATITUDE": 32.6579,
   "LONGITUDE": -97.3225
 },
 {
   "CONAME": "Seminary Hills Elementary Schl",
   "STREET": "Townsend Dr",
   "CITY": "Fort Worth",
   "STATE_NAME": "Texas",
   "ZIP": 76115,
   "NAICS": 61111007,
   "SIC": "821103",
   "EMPNUM": 65,
   "SALESVOL": 0,
   "DESC_": "Seminary Hills Elementary Schl, Townsend Dr, Fort Worth, Texas, 76115",
   "LATITUDE": 32.672,
   "LONGITUDE": -97.3473
 },
 {
   "CONAME": "Rosemont Elementary School",
   "STREET": "W Seminary Dr",
   "CITY": "Fort Worth",
   "STATE_NAME": "Texas",
   "ZIP": 76115,
   "NAICS": 61111007,
   "SIC": "821103",
   "EMPNUM": 60,
   "SALESVOL": 0,
   "DESC_": "Rosemont Elementary School, W Seminary Dr, Fort Worth, Texas, 76115",
   "LATITUDE": 32.6847,
   "LONGITUDE": -97.3404
 },
 {
   "CONAME": "Carter Park Elementary School",
   "STREET": "E Broadus Ave",
   "CITY": "Fort Worth",
   "STATE_NAME": "Texas",
   "ZIP": 76115,
   "NAICS": 61111007,
   "SIC": "821103",
   "EMPNUM": 65,
   "SALESVOL": 0,
   "DESC_": "Carter Park Elementary School, E Broadus Ave, Fort Worth, Texas, 76115",
   "LATITUDE": 32.6835,
   "LONGITUDE": -97.3128
 },
 {
   "CONAME": "Rosemont Middle School",
   "STREET": "W Seminary Dr",
   "CITY": "Fort Worth",
   "STATE_NAME": "Texas",
   "ZIP": 76115,
   "NAICS": 61111007,
   "SIC": "821103",
   "EMPNUM": 100,
   "SALESVOL": 0,
   "DESC_": "Rosemont Middle School, W Seminary Dr, Fort Worth, Texas, 76115",
   "LATITUDE": 32.6837,
   "LONGITUDE": -97.3427
 },
 {
   "CONAME": "Hubbard Elementary School",
   "STREET": "W Spurgeon St",
   "CITY": "Fort Worth",
   "STATE_NAME": "Texas",
   "ZIP": 76115,
   "NAICS": 61111007,
   "SIC": "821103",
   "EMPNUM": 98,
   "SALESVOL": 0,
   "DESC_": "Hubbard Elementary School, W Spurgeon St, Fort Worth, Texas, 76115",
   "LATITUDE": 32.6784,
   "LONGITUDE": -97.3397
 },
 {
   "CONAME": "Campus Drive United Methodist",
   "STREET": "E Seminary Dr",
   "CITY": "Fort Worth",
   "STATE_NAME": "Texas",
   "ZIP": 76115,
   "NAICS": 61111004,
   "SIC": "821101",
   "EMPNUM": 6,
   "SALESVOL": 0,
   "DESC_": "Campus Drive United Methodist, E Seminary Dr, Fort Worth, Texas, 76115",
   "LATITUDE": 32.6837,
   "LONGITUDE": -97.3073
 },
 {
   "CONAME": "Cityview Academy",
   "STREET": "Merida Ave",
   "CITY": "Fort Worth",
   "STATE_NAME": "Texas",
   "ZIP": 76115,
   "NAICS": 61111007,
   "SIC": "821103",
   "EMPNUM": 22,
   "SALESVOL": 0,
   "DESC_": "Cityview Academy, Merida Ave, Fort Worth, Texas, 76115",
   "LATITUDE": 32.6763,
   "LONGITUDE": -97.3556
 },
 {
   "CONAME": "Greenbriar Elementary School",
   "STREET": "Grady Lee St",
   "CITY": "Fort Worth",
   "STATE_NAME": "Texas",
   "ZIP": 76134,
   "NAICS": 61111007,
   "SIC": "821103",
   "EMPNUM": 100,
   "SALESVOL": 0,
   "DESC_": "Greenbriar Elementary School, Grady Lee St, Fort Worth, Texas, 76134",
   "LATITUDE": 32.6631,
   "LONGITUDE": -97.3444
 },
 {
   "CONAME": "School of Renewal Inc",
   "STREET": "Odell Dr",
   "CITY": "Fort Worth",
   "STATE_NAME": "Texas",
   "ZIP": 76115,
   "NAICS": 61111007,
   "SIC": "821103",
   "EMPNUM": 13,
   "SALESVOL": 0,
   "DESC_": "School of Renewal Inc, Odell Dr, Fort Worth, Texas, 76115",
   "LATITUDE": 32.6671,
   "LONGITUDE": -97.3472
 },
 {
   "CONAME": "Convergence School",
   "STREET": "James Ave",
   "CITY": "Fort Worth",
   "STATE_NAME": "Texas",
   "ZIP": 76134,
   "NAICS": 61111007,
   "SIC": "821103",
   "EMPNUM": 13,
   "SALESVOL": 0,
   "DESC_": "Convergence School, James Ave, Fort Worth, Texas, 76134",
   "LATITUDE": 32.6618,
   "LONGITUDE": -97.3441
 },
 {
   "CONAME": "W M Green Elementary School",
   "STREET": "David Strickland Rd",
   "CITY": "Fort Worth",
   "STATE_NAME": "Texas",
   "ZIP": 76119,
   "NAICS": 61111007,
   "SIC": "821103",
   "EMPNUM": 84,
   "SALESVOL": 0,
   "DESC_": "W M Green Elementary School, David Strickland Rd, Fort Worth, Texas, 76119",
   "LATITUDE": 32.6816,
   "LONGITUDE": -97.2549
 },
 {
   "CONAME": "Clifford Davis Elementary Schl",
   "STREET": "Campus Dr",
   "CITY": "Fort Worth",
   "STATE_NAME": "Texas",
   "ZIP": 76119,
   "NAICS": 61111007,
   "SIC": "821103",
   "EMPNUM": 55,
   "SALESVOL": 0,
   "DESC_": "Clifford Davis Elementary Schl, Campus Dr, Fort Worth, Texas, 76119",
   "LATITUDE": 32.6867,
   "LONGITUDE": -97.2958
 },
 {
   "CONAME": "Forest Oak Middle School",
   "STREET": "Pecos St",
   "CITY": "Fort Worth",
   "STATE_NAME": "Texas",
   "ZIP": 76119,
   "NAICS": 61111007,
   "SIC": "821103",
   "EMPNUM": 80,
   "SALESVOL": 0,
   "DESC_": "Forest Oak Middle School, Pecos St, Fort Worth, Texas, 76119",
   "LATITUDE": 32.6885,
   "LONGITUDE": -97.278
 },
 {
   "CONAME": "O D Wyatt High School",
   "STREET": "E Seminary Dr",
   "CITY": "Fort Worth",
   "STATE_NAME": "Texas",
   "ZIP": 76119,
   "NAICS": 61111007,
   "SIC": "821103",
   "EMPNUM": 168,
   "SALESVOL": 0,
   "DESC_": "O D Wyatt High School, E Seminary Dr, Fort Worth, Texas, 76119",
   "LATITUDE": 32.6827,
   "LONGITUDE": -97.2943
 },
 {
   "CONAME": "M G Ellis Primary School",
   "STREET": "Ne 14th St",
   "CITY": "Fort Worth",
   "STATE_NAME": "Texas",
   "ZIP": 76164,
   "NAICS": 61111007,
   "SIC": "821103",
   "EMPNUM": 11,
   "SALESVOL": 0,
   "DESC_": "M G Ellis Primary School, Ne 14th St, Fort Worth, Texas, 76164",
   "LATITUDE": 32.7802,
   "LONGITUDE": -97.3471
 },
 {
   "CONAME": "Forth",
   "STREET": "Denver Ave",
   "CITY": "Fort Worth",
   "STATE_NAME": "Texas",
   "ZIP": 76164,
   "NAICS": 61111007,
   "SIC": "821103",
   "EMPNUM": 40,
   "SALESVOL": 0,
   "DESC_": "Forth, Denver Ave, Fort Worth, Texas, 76164",
   "LATITUDE": 32.7741,
   "LONGITUDE": -97.3543
 },
 {
   "CONAME": "Metro Opportunity High School",
   "STREET": "Cullen St",
   "CITY": "Fort Worth",
   "STATE_NAME": "Texas",
   "ZIP": 76107,
   "NAICS": 61111007,
   "SIC": "821103",
   "EMPNUM": 50,
   "SALESVOL": 0,
   "DESC_": "Metro Opportunity High School, Cullen St, Fort Worth, Texas, 76107",
   "LATITUDE": 32.7622,
   "LONGITUDE": -97.3557
 },
 {
   "CONAME": "Rufino Mendoza Elementary Schl",
   "STREET": "Denver Ave",
   "CITY": "Fort Worth",
   "STATE_NAME": "Texas",
   "ZIP": 76164,
   "NAICS": 61111007,
   "SIC": "821103",
   "EMPNUM": 24,
   "SALESVOL": 0,
   "DESC_": "Rufino Mendoza Elementary Schl, Denver Ave, Fort Worth, Texas, 76164",
   "LATITUDE": 32.7741,
   "LONGITUDE": -97.3543
 },
 {
   "CONAME": "Three Three One Zero School",
   "STREET": "E Bluff St",
   "CITY": "Fort Worth",
   "STATE_NAME": "Texas",
   "ZIP": 76102,
   "NAICS": 61111007,
   "SIC": "821103",
   "EMPNUM": 13,
   "SALESVOL": 0,
   "DESC_": "Three Three One Zero School, E Bluff St, Fort Worth, Texas, 76102",
   "LATITUDE": 32.7609,
   "LONGITUDE": -97.3293
 },
 {
   "CONAME": "Charles E Nash Elementary Schl",
   "STREET": "Samuels Ave",
   "CITY": "Fort Worth",
   "STATE_NAME": "Texas",
   "ZIP": 76102,
   "NAICS": 61111007,
   "SIC": "821103",
   "EMPNUM": 40,
   "SALESVOL": 0,
   "DESC_": "Charles E Nash Elementary Schl, Samuels Ave, Fort Worth, Texas, 76102",
   "LATITUDE": 32.7623,
   "LONGITUDE": -97.3298
 },
 {
   "CONAME": "Oakhurst Elementary School",
   "STREET": "Yucca Ave",
   "CITY": "Fort Worth",
   "STATE_NAME": "Texas",
   "ZIP": 76111,
   "NAICS": 61111007,
   "SIC": "821103",
   "EMPNUM": 70,
   "SALESVOL": 0,
   "DESC_": "Oakhurst Elementary School, Yucca Ave, Fort Worth, Texas, 76111",
   "LATITUDE": 32.7804,
   "LONGITUDE": -97.3068
 },
 {
   "CONAME": "Calvary Christian Academy",
   "STREET": "Oakhurst Scenic Dr",
   "CITY": "Fort Worth",
   "STATE_NAME": "Texas",
   "ZIP": 76111,
   "NAICS": 61111004,
   "SIC": "821101",
   "EMPNUM": 15,
   "SALESVOL": 0,
   "DESC_": "Calvary Christian Academy, Oakhurst Scenic Dr, Fort Worth, Texas, 76111",
   "LATITUDE": 32.7822,
   "LONGITUDE": -97.3195
 },
 {
   "CONAME": "Versia L Williams Elementary",
   "STREET": "Baurline St",
   "CITY": "Fort Worth",
   "STATE_NAME": "Texas",
   "ZIP": 76111,
   "NAICS": 61111007,
   "SIC": "821103",
   "EMPNUM": 60,
   "SALESVOL": 0,
   "DESC_": "Versia L Williams Elementary, Baurline St, Fort Worth, Texas, 76111",
   "LATITUDE": 32.7582,
   "LONGITUDE": -97.3053
 },
 {
   "CONAME": "H V Helbing Elementary School",
   "STREET": "N Crump St",
   "CITY": "Fort Worth",
   "STATE_NAME": "Texas",
   "ZIP": 76106,
   "NAICS": 61111007,
   "SIC": "821103",
   "EMPNUM": 73,
   "SALESVOL": 0,
   "DESC_": "H V Helbing Elementary School, N Crump St, Fort Worth, Texas, 76106",
   "LATITUDE": 32.8077,
   "LONGITUDE": -97.3423
 },
 {
   "CONAME": "Cesar Chavez Primary School",
   "STREET": "Deen Rd",
   "CITY": "Fort Worth",
   "STATE_NAME": "Texas",
   "ZIP": 76106,
   "NAICS": 61111007,
   "SIC": "821103",
   "EMPNUM": 60,
   "SALESVOL": 0,
   "DESC_": "Cesar Chavez Primary School, Deen Rd, Fort Worth, Texas, 76106",
   "LATITUDE": 32.8104,
   "LONGITUDE": -97.3257
 },
 {
   "CONAME": "Diamond Hill-jarvis High Schl",
   "STREET": "Maydell St",
   "CITY": "Fort Worth",
   "STATE_NAME": "Texas",
   "ZIP": 76106,
   "NAICS": 61111007,
   "SIC": "821103",
   "EMPNUM": 90,
   "SALESVOL": 0,
   "DESC_": "Diamond Hill-jarvis High Schl, Maydell St, Fort Worth, Texas, 76106",
   "LATITUDE": 32.8084,
   "LONGITUDE": -97.3367
 },
 {
   "CONAME": "W a Meacham Middle School",
   "STREET": "Weber St",
   "CITY": "Fort Worth",
   "STATE_NAME": "Texas",
   "ZIP": 76106,
   "NAICS": 61111007,
   "SIC": "821103",
   "EMPNUM": 80,
   "SALESVOL": 0,
   "DESC_": "W a Meacham Middle School, Weber St, Fort Worth, Texas, 76106",
   "LATITUDE": 32.8094,
   "LONGITUDE": -97.3334
 },
 {
   "CONAME": "M H Moore Elementary School",
   "STREET": "Ne 36th St",
   "CITY": "Fort Worth",
   "STATE_NAME": "Texas",
   "ZIP": 76106,
   "NAICS": 61111007,
   "SIC": "821103",
   "EMPNUM": 45,
   "SALESVOL": 0,
   "DESC_": "M H Moore Elementary School, Ne 36th St, Fort Worth, Texas, 76106",
   "LATITUDE": 32.8112,
   "LONGITUDE": -97.3333
 },
 {
   "CONAME": "Diamond Hill Elementary School",
   "STREET": "Dewey St",
   "CITY": "Fort Worth",
   "STATE_NAME": "Texas",
   "ZIP": 76106,
   "NAICS": 61111007,
   "SIC": "821103",
   "EMPNUM": 90,
   "SALESVOL": 0,
   "DESC_": "Diamond Hill Elementary School, Dewey St, Fort Worth, Texas, 76106",
   "LATITUDE": 32.7986,
   "LONGITUDE": -97.3312
 },
 {
   "CONAME": "Nolan Catholic High School",
   "STREET": "Bridge St",
   "CITY": "Fort Worth",
   "STATE_NAME": "Texas",
   "ZIP": 76103,
   "NAICS": 61111007,
   "SIC": "821103",
   "EMPNUM": 120,
   "SALESVOL": 0,
   "DESC_": "Nolan Catholic High School, Bridge St, Fort Worth, Texas, 76103",
   "LATITUDE": 32.7613,
   "LONGITUDE": -97.2566
 },
 {
   "CONAME": "St George School",
   "STREET": "Hudgins Ave",
   "CITY": "Fort Worth",
   "STATE_NAME": "Texas",
   "ZIP": 76111,
   "NAICS": 61111004,
   "SIC": "821101",
   "EMPNUM": 18,
   "SALESVOL": 0,
   "DESC_": "St George School, Hudgins Ave, Fort Worth, Texas, 76111",
   "LATITUDE": 32.7748,
   "LONGITUDE": -97.2978
 },
 {
   "CONAME": "Fort Worth Isd",
   "STREET": "Yucca Ave",
   "CITY": "Fort Worth",
   "STATE_NAME": "Texas",
   "ZIP": 76111,
   "NAICS": 61111007,
   "SIC": "821103",
   "EMPNUM": 22,
   "SALESVOL": 0,
   "DESC_": "Fort Worth Isd, Yucca Ave, Fort Worth, Texas, 76111",
   "LATITUDE": 32.781,
   "LONGITUDE": -97.2988
 },
 {
   "CONAME": "Carter Amon-riverside High",
   "STREET": "Yucca Ave",
   "CITY": "Fort Worth",
   "STATE_NAME": "Texas",
   "ZIP": 76111,
   "NAICS": 61111007,
   "SIC": "821103",
   "EMPNUM": 145,
   "SALESVOL": 0,
   "DESC_": "Carter Amon-riverside High, Yucca Ave, Fort Worth, Texas, 76111",
   "LATITUDE": 32.781,
   "LONGITUDE": -97.2988
 },
 {
   "CONAME": "Our Mother-mercy Catholic Schl",
   "STREET": "E Terrell Ave",
   "CITY": "Fort Worth",
   "STATE_NAME": "Texas",
   "ZIP": 76104,
   "NAICS": 61111007,
   "SIC": "821103",
   "EMPNUM": 12,
   "SALESVOL": 0,
   "DESC_": "Our Mother-mercy Catholic Schl, E Terrell Ave, Fort Worth, Texas, 76104",
   "LATITUDE": 32.7358,
   "LONGITUDE": -97.3146
 },
 {
   "CONAME": "Carroll Peak Elementary School",
   "STREET": "E Jefferson Ave",
   "CITY": "Fort Worth",
   "STATE_NAME": "Texas",
   "ZIP": 76104,
   "NAICS": 61111007,
   "SIC": "821103",
   "EMPNUM": 60,
   "SALESVOL": 0,
   "DESC_": "Carroll Peak Elementary School, E Jefferson Ave, Fort Worth, Texas, 76104",
   "LATITUDE": 32.7249,
   "LONGITUDE": -97.3111
 },
 {
   "CONAME": "Young Womens Leadership Acad",
   "STREET": "E 8th St",
   "CITY": "Fort Worth",
   "STATE_NAME": "Texas",
   "ZIP": 76102,
   "NAICS": 61111007,
   "SIC": "821103",
   "EMPNUM": 13,
   "SALESVOL": 0,
   "DESC_": "Young Womens Leadership Acad, E 8th St, Fort Worth, Texas, 76102",
   "LATITUDE": 32.7536,
   "LONGITUDE": -97.3272
 },
 {
   "CONAME": "Guinn Van Zandt Elementary",
   "STREET": "Missouri Ave",
   "CITY": "Fort Worth",
   "STATE_NAME": "Texas",
   "ZIP": 76104,
   "NAICS": 61111007,
   "SIC": "821103",
   "EMPNUM": 55,
   "SALESVOL": 0,
   "DESC_": "Guinn Van Zandt Elementary, Missouri Ave, Fort Worth, Texas, 76104",
   "LATITUDE": 32.7387,
   "LONGITUDE": -97.3184
 },
 {
   "CONAME": "I M Terrell Elementary School",
   "STREET": "I M Terrell Cir S",
   "CITY": "Fort Worth",
   "STATE_NAME": "Texas",
   "ZIP": 76102,
   "NAICS": 61111007,
   "SIC": "821103",
   "EMPNUM": 40,
   "SALESVOL": 0,
   "DESC_": "I M Terrell Elementary School, I M Terrell Cir S, Fort Worth, Texas, 76102",
   "LATITUDE": 32.7489,
   "LONGITUDE": -97.3145
 },
 {
   "CONAME": "Ekklesia Christian School",
   "STREET": "Bessie St",
   "CITY": "Fort Worth",
   "STATE_NAME": "Texas",
   "ZIP": 76104,
   "NAICS": 61111007,
   "SIC": "821103",
   "EMPNUM": 4,
   "SALESVOL": 0,
   "DESC_": "Ekklesia Christian School, Bessie St, Fort Worth, Texas, 76104",
   "LATITUDE": 32.7401,
   "LONGITUDE": -97.3121
 },
 {
   "CONAME": "Fortress Church",
   "STREET": "Stella St",
   "CITY": "Fort Worth",
   "STATE_NAME": "Texas",
   "ZIP": 76104,
   "NAICS": 61111004,
   "SIC": "821101",
   "EMPNUM": 6,
   "SALESVOL": 0,
   "DESC_": "Fortress Church, Stella St, Fort Worth, Texas, 76104",
   "LATITUDE": 32.7404,
   "LONGITUDE": -97.3194
 },
 {
   "CONAME": "Christine C Moss Elementary",
   "STREET": "Eastland St",
   "CITY": "Fort Worth",
   "STATE_NAME": "Texas",
   "ZIP": 76119,
   "NAICS": 61111007,
   "SIC": "821103",
   "EMPNUM": 62,
   "SALESVOL": 0,
   "DESC_": "Christine C Moss Elementary, Eastland St, Fort Worth, Texas, 76119",
   "LATITUDE": 32.707,
   "LONGITUDE": -97.2651
 },
 {
   "CONAME": "A M Pate Elementary School",
   "STREET": "Anglin Dr",
   "CITY": "Fort Worth",
   "STATE_NAME": "Texas",
   "ZIP": 76119,
   "NAICS": 61111007,
   "SIC": "821103",
   "EMPNUM": 70,
   "SALESVOL": 0,
   "DESC_": "A M Pate Elementary School, Anglin Dr, Fort Worth, Texas, 76119",
   "LATITUDE": 32.7073,
   "LONGITUDE": -97.252
 },
 {
   "CONAME": "Autumn Leaves Estate Sales",
   "STREET": "Fairlane Ave",
   "CITY": "Fort Worth",
   "STATE_NAME": "Texas",
   "ZIP": 76119,
   "NAICS": 61111007,
   "SIC": "821103",
   "EMPNUM": 13,
   "SALESVOL": 0,
   "DESC_": "Autumn Leaves Estate Sales, Fairlane Ave, Fort Worth, Texas, 76119",
   "LATITUDE": 32.6933,
   "LONGITUDE": -97.2566
 },
 {
   "CONAME": "Glencrest 6th Grade School",
   "STREET": "Eastline Dr",
   "CITY": "Fort Worth",
   "STATE_NAME": "Texas",
   "ZIP": 76119,
   "NAICS": 61111007,
   "SIC": "821103",
   "EMPNUM": 55,
   "SALESVOL": 0,
   "DESC_": "Glencrest 6th Grade School, Eastline Dr, Fort Worth, Texas, 76119",
   "LATITUDE": 32.6931,
   "LONGITUDE": -97.2908
 },
 {
   "CONAME": "T a Sims Elementary School",
   "STREET": "Crenshaw Ave",
   "CITY": "Fort Worth",
   "STATE_NAME": "Texas",
   "ZIP": 76105,
   "NAICS": 61111007,
   "SIC": "821103",
   "EMPNUM": 85,
   "SALESVOL": 0,
   "DESC_": "T a Sims Elementary School, Crenshaw Ave, Fort Worth, Texas, 76105",
   "LATITUDE": 32.7183,
   "LONGITUDE": -97.2748
 },
 {
   "CONAME": "Mitchell Boulevard Elementary",
   "STREET": "Mitchell Blvd",
   "CITY": "Fort Worth",
   "STATE_NAME": "Texas",
   "ZIP": 76105,
   "NAICS": 61111007,
   "SIC": "821103",
   "EMPNUM": 60,
   "SALESVOL": 0,
   "DESC_": "Mitchell Boulevard Elementary, Mitchell Blvd, Fort Worth, Texas, 76105",
   "LATITUDE": 32.7096,
   "LONGITUDE": -97.288
 },
 {
   "CONAME": "Glen Park Elementary School",
   "STREET": "Pecos St",
   "CITY": "Fort Worth",
   "STATE_NAME": "Texas",
   "ZIP": 76119,
   "NAICS": 61111007,
   "SIC": "821103",
   "EMPNUM": 80,
   "SALESVOL": 0,
   "DESC_": "Glen Park Elementary School, Pecos St, Fort Worth, Texas, 76119",
   "LATITUDE": 32.6892,
   "LONGITUDE": -97.2708
 },
 {
   "CONAME": "Oaklawn Elementary School",
   "STREET": "Hardeman St",
   "CITY": "Fort Worth",
   "STATE_NAME": "Texas",
   "ZIP": 76119,
   "NAICS": 61111007,
   "SIC": "821103",
   "EMPNUM": 60,
   "SALESVOL": 0,
   "DESC_": "Oaklawn Elementary School, Hardeman St, Fort Worth, Texas, 76119",
   "LATITUDE": 32.7021,
   "LONGITUDE": -97.2789
 },
 {
   "CONAME": "Masonic Elementary School",
   "STREET": "Wichita St",
   "CITY": "Fort Worth",
   "STATE_NAME": "Texas",
   "ZIP": 76119,
   "NAICS": 61111007,
   "SIC": "821103",
   "EMPNUM": 31,
   "SALESVOL": 0,
   "DESC_": "Masonic Elementary School, Wichita St, Fort Worth, Texas, 76119",
   "LATITUDE": 32.7088,
   "LONGITUDE": -97.284
 },
 {
   "CONAME": "Learning As the Bible Speaks",
   "STREET": "E Berry St",
   "CITY": "Fort Worth",
   "STATE_NAME": "Texas",
   "ZIP": 76105,
   "NAICS": 61111004,
   "SIC": "821101",
   "EMPNUM": 15,
   "SALESVOL": 0,
   "DESC_": "Learning As the Bible Speaks, E Berry St, Fort Worth, Texas, 76105",
   "LATITUDE": 32.7138,
   "LONGITUDE": -97.274
 },
 {
   "CONAME": "Fort Worth State School",
   "STREET": "S Riverside Dr",
   "CITY": "Fort Worth",
   "STATE_NAME": "Texas",
   "ZIP": 76119,
   "NAICS": 61111012,
   "SIC": "821106",
   "EMPNUM": 2,
   "SALESVOL": 0,
   "DESC_": "Fort Worth State School, S Riverside Dr, Fort Worth, Texas, 76119",
   "LATITUDE": 32.6918,
   "LONGITUDE": -97.302
 },
 {
   "CONAME": "Meadowbrook Elementary School",
   "STREET": "Meadowbrook Dr",
   "CITY": "Fort Worth",
   "STATE_NAME": "Texas",
   "ZIP": 76103,
   "NAICS": 61111007,
   "SIC": "821103",
   "EMPNUM": 85,
   "SALESVOL": 0,
   "DESC_": "Meadowbrook Elementary School, Meadowbrook Dr, Fort Worth, Texas, 76103",
   "LATITUDE": 32.7446,
   "LONGITUDE": -97.2593
 },
 {
   "CONAME": "S S Dillow Elementary School",
   "STREET": "Avenue N",
   "CITY": "Fort Worth",
   "STATE_NAME": "Texas",
   "ZIP": 76105,
   "NAICS": 61111007,
   "SIC": "821103",
   "EMPNUM": 60,
   "SALESVOL": 0,
   "DESC_": "S S Dillow Elementary School, Avenue N, Fort Worth, Texas, 76105",
   "LATITUDE": 32.7233,
   "LONGITUDE": -97.2662
 },
 {
   "CONAME": "William James Middle School",
   "STREET": "Nashville Ave",
   "CITY": "Fort Worth",
   "STATE_NAME": "Texas",
   "ZIP": 76105,
   "NAICS": 61111007,
   "SIC": "821103",
   "EMPNUM": 100,
   "SALESVOL": 0,
   "DESC_": "William James Middle School, Nashville Ave, Fort Worth, Texas, 76105",
   "LATITUDE": 32.7341,
   "LONGITUDE": -97.2843
 },
 {
   "CONAME": "Fort Worth Isd",
   "STREET": "Conner Ave",
   "CITY": "Fort Worth",
   "STATE_NAME": "Texas",
   "ZIP": 76105,
   "NAICS": 61111007,
   "SIC": "821103",
   "EMPNUM": 22,
   "SALESVOL": 0,
   "DESC_": "Fort Worth Isd, Conner Ave, Fort Worth, Texas, 76105",
   "LATITUDE": 32.7331,
   "LONGITUDE": -97.2886
 },
 {
   "CONAME": "Uplift Education Mighty Prep",
   "STREET": "S Beach St",
   "CITY": "Fort Worth",
   "STATE_NAME": "Texas",
   "ZIP": 76105,
   "NAICS": 61111007,
   "SIC": "821103",
   "EMPNUM": 15,
   "SALESVOL": 0,
   "DESC_": "Uplift Education Mighty Prep, S Beach St, Fort Worth, Texas, 76105",
   "LATITUDE": 32.7265,
   "LONGITUDE": -97.2888
 },
 {
   "CONAME": "Meadowbrook Middle School",
   "STREET": "Ederville Rd S",
   "CITY": "Fort Worth",
   "STATE_NAME": "Texas",
   "ZIP": 76103,
   "NAICS": 61111007,
   "SIC": "821103",
   "EMPNUM": 80,
   "SALESVOL": 0,
   "DESC_": "Meadowbrook Middle School, Ederville Rd S, Fort Worth, Texas, 76103",
   "LATITUDE": 32.7469,
   "LONGITUDE": -97.2605
 },
 {
   "CONAME": "D Mc Rae Elementary School",
   "STREET": "Avenue N",
   "CITY": "Fort Worth",
   "STATE_NAME": "Texas",
   "ZIP": 76105,
   "NAICS": 61111007,
   "SIC": "821103",
   "EMPNUM": 101,
   "SALESVOL": 0,
   "DESC_": "D Mc Rae Elementary School, Avenue N, Fort Worth, Texas, 76105",
   "LATITUDE": 32.7235,
   "LONGITUDE": -97.2778
 },
 {
   "CONAME": "Polytechnic Senior High School",
   "STREET": "Conner Ave",
   "CITY": "Fort Worth",
   "STATE_NAME": "Texas",
   "ZIP": 76105,
   "NAICS": 61111007,
   "SIC": "821103",
   "EMPNUM": 130,
   "SALESVOL": 0,
   "DESC_": "Polytechnic Senior High School, Conner Ave, Fort Worth, Texas, 76105",
   "LATITUDE": 32.7331,
   "LONGITUDE": -97.2886
 },
 {
   "CONAME": "Itop Christian Academy",
   "STREET": "E Lancaster Ave",
   "CITY": "Fort Worth",
   "STATE_NAME": "Texas",
   "ZIP": 76103,
   "NAICS": 61111004,
   "SIC": "821101",
   "EMPNUM": 7,
   "SALESVOL": 0,
   "DESC_": "Itop Christian Academy, E Lancaster Ave, Fort Worth, Texas, 76103",
   "LATITUDE": 32.7451,
   "LONGITUDE": -97.2985
 },
 {
   "CONAME": "East Fort Worth Montessori Acd",
   "STREET": "",
   "CITY": "Fort Worth",
   "STATE_NAME": "Texas",
   "ZIP": 76103,
   "NAICS": 61111007,
   "SIC": "821103",
   "EMPNUM": 13,
   "SALESVOL": 0,
   "DESC_": "East Fort Worth Montessori Acd,  , Fort Worth, Texas, 76103",
   "LATITUDE": 32.7514,
   "LONGITUDE": -97.2584
 },
 {
   "CONAME": "Uplift Mighty Preparatory",
   "STREET": "Mighty Mite Dr",
   "CITY": "Fort Worth",
   "STATE_NAME": "Texas",
   "ZIP": 76105,
   "NAICS": 61111007,
   "SIC": "821103",
   "EMPNUM": 15,
   "SALESVOL": 0,
   "DESC_": "Uplift Mighty Preparatory, Mighty Mite Dr, Fort Worth, Texas, 76105",
   "LATITUDE": 32.7326,
   "LONGITUDE": -97.2654
 },
 {
   "CONAME": "Sangamore Hill Elementary Schl",
   "STREET": "S Hughes Ave",
   "CITY": "Fort Worth",
   "STATE_NAME": "Texas",
   "ZIP": 76103,
   "NAICS": 61111007,
   "SIC": "821103",
   "EMPNUM": 75,
   "SALESVOL": 0,
   "DESC_": "Sangamore Hill Elementary Schl, S Hughes Ave, Fort Worth, Texas, 76103",
   "LATITUDE": 32.7366,
   "LONGITUDE": -97.2559
 },
 {
   "CONAME": "All Saints Catholic School",
   "STREET": "N Houston St",
   "CITY": "Fort Worth",
   "STATE_NAME": "Texas",
   "ZIP": 76164,
   "NAICS": 61111004,
   "SIC": "821101",
   "EMPNUM": 20,
   "SALESVOL": 0,
   "DESC_": "All Saints Catholic School, N Houston St, Fort Worth, Texas, 76164",
   "LATITUDE": 32.7813,
   "LONGITUDE": -97.3517
 },
 {
   "CONAME": "Riverside Middle School",
   "STREET": "Bolton St",
   "CITY": "Fort Worth",
   "STATE_NAME": "Texas",
   "ZIP": 76111,
   "NAICS": 61111007,
   "SIC": "821103",
   "EMPNUM": 75,
   "SALESVOL": 0,
   "DESC_": "Riverside Middle School, Bolton St, Fort Worth, Texas, 76111",
   "LATITUDE": 32.7837,
   "LONGITUDE": -97.3001
 },
 {
   "CONAME": "Bonnie Bray Elementary",
   "STREET": "Kimbo Rd",
   "CITY": "Fort Worth",
   "STATE_NAME": "Texas",
   "ZIP": 76111,
   "NAICS": 61111007,
   "SIC": "821103",
   "EMPNUM": 60,
   "SALESVOL": 0,
   "DESC_": "Bonnie Bray Elementary, Kimbo Rd, Fort Worth, Texas, 76111",
   "LATITUDE": 32.7977,
   "LONGITUDE": -97.2968
 },
 {
   "CONAME": "Springdale Elementary School",
   "STREET": "Hollis St",
   "CITY": "Fort Worth",
   "STATE_NAME": "Texas",
   "ZIP": 76111,
   "NAICS": 61111007,
   "SIC": "821103",
   "EMPNUM": 60,
   "SALESVOL": 0,
   "DESC_": "Springdale Elementary School, Hollis St, Fort Worth, Texas, 76111",
   "LATITUDE": 32.7925,
   "LONGITUDE": -97.3002
 },
 {
   "CONAME": "Riverside Applied Learning Ctr",
   "STREET": "Fossil Dr",
   "CITY": "Fort Worth",
   "STATE_NAME": "Texas",
   "ZIP": 76111,
   "NAICS": 61111007,
   "SIC": "821103",
   "EMPNUM": 35,
   "SALESVOL": 0,
   "DESC_": "Riverside Applied Learning Ctr, Fossil Dr, Fort Worth, Texas, 76111",
   "LATITUDE": 32.8033,
   "LONGITUDE": -97.2957
 },
 {
   "CONAME": "Fort Worth Isd",
   "STREET": "Ramey Ave",
   "CITY": "Fort Worth",
   "STATE_NAME": "Texas",
   "ZIP": 76112,
   "NAICS": 61111007,
   "SIC": "821103",
   "EMPNUM": 22,
   "SALESVOL": 0,
   "DESC_": "Fort Worth Isd, Ramey Ave, Fort Worth, Texas, 76112",
   "LATITUDE": 32.7192,
   "LONGITUDE": -97.2311
 },
 {
   "CONAME": "Maudrie M Walton Elementary",
   "STREET": "Rickenbacker Pl",
   "CITY": "Fort Worth",
   "STATE_NAME": "Texas",
   "ZIP": 76112,
   "NAICS": 61111007,
   "SIC": "821103",
   "EMPNUM": 65,
   "SALESVOL": 0,
   "DESC_": "Maudrie M Walton Elementary, Rickenbacker Pl, Fort Worth, Texas, 76112",
   "LATITUDE": 32.7213,
   "LONGITUDE": -97.2299
 },
 {
   "CONAME": "Maude I Logan Elementary Schl",
   "STREET": "Dillard St",
   "CITY": "Fort Worth",
   "STATE_NAME": "Texas",
   "ZIP": 76105,
   "NAICS": 61111007,
   "SIC": "821103",
   "EMPNUM": 75,
   "SALESVOL": 0,
   "DESC_": "Maude I Logan Elementary Schl, Dillard St, Fort Worth, Texas, 76105",
   "LATITUDE": 32.7227,
   "LONGITUDE": -97.2439
 },
 {
   "CONAME": "Dunbar High School",
   "STREET": "Ramey Ave",
   "CITY": "Fort Worth",
   "STATE_NAME": "Texas",
   "ZIP": 76112,
   "NAICS": 61111007,
   "SIC": "821103",
   "EMPNUM": 150,
   "SALESVOL": 0,
   "DESC_": "Dunbar High School, Ramey Ave, Fort Worth, Texas, 76112",
   "LATITUDE": 32.7192,
   "LONGITUDE": -97.2311
 },
 {
   "CONAME": "Sunrise-mc Millian Elementary",
   "STREET": "Stalcup Rd",
   "CITY": "Fort Worth",
   "STATE_NAME": "Texas",
   "ZIP": 76119,
   "NAICS": 61111007,
   "SIC": "821103",
   "EMPNUM": 60,
   "SALESVOL": 0,
   "DESC_": "Sunrise-mc Millian Elementary, Stalcup Rd, Fort Worth, Texas, 76119",
   "LATITUDE": 32.7131,
   "LONGITUDE": -97.2379
 },
 {
   "CONAME": "Dunbar Middle School",
   "STREET": "Stalcup Rd",
   "CITY": "Fort Worth",
   "STATE_NAME": "Texas",
   "ZIP": 76119,
   "NAICS": 61111007,
   "SIC": "821103",
   "EMPNUM": 100,
   "SALESVOL": 0,
   "DESC_": "Dunbar Middle School, Stalcup Rd, Fort Worth, Texas, 76119",
   "LATITUDE": 32.7206,
   "LONGITUDE": -97.2376
 },
 {
   "CONAME": "Key School Inc",
   "STREET": "E Loop 820 S",
   "CITY": "Fort Worth",
   "STATE_NAME": "Texas",
   "ZIP": 76119,
   "NAICS": 61111007,
   "SIC": "821103",
   "EMPNUM": 45,
   "SALESVOL": 0,
   "DESC_": "Key School Inc, E Loop 820 S, Fort Worth, Texas, 76119",
   "LATITUDE": 32.7045,
   "LONGITUDE": -97.2329
 },
 {
   "CONAME": "Eastern Hills Elementary Schl",
   "STREET": "Shelton St",
   "CITY": "Fort Worth",
   "STATE_NAME": "Texas",
   "ZIP": 76112,
   "NAICS": 61111007,
   "SIC": "821103",
   "EMPNUM": 80,
   "SALESVOL": 0,
   "DESC_": "Eastern Hills Elementary Schl, Shelton St, Fort Worth, Texas, 76112",
   "LATITUDE": 32.7482,
   "LONGITUDE": -97.231
 },
 {
   "CONAME": "St Rita's School",
   "STREET": "Weiler Blvd",
   "CITY": "Fort Worth",
   "STATE_NAME": "Texas",
   "ZIP": 76112,
   "NAICS": 61111004,
   "SIC": "821101",
   "EMPNUM": 26,
   "SALESVOL": 0,
   "DESC_": "St Rita's School, Weiler Blvd, Fort Worth, Texas, 76112",
   "LATITUDE": 32.7369,
   "LONGITUDE": -97.2347
 },
 {
   "CONAME": "Fort Worth Isd",
   "STREET": "Barron Ln",
   "CITY": "Fort Worth",
   "STATE_NAME": "Texas",
   "ZIP": 76112,
   "NAICS": 61111007,
   "SIC": "821103",
   "EMPNUM": 22,
   "SALESVOL": 0,
   "DESC_": "Fort Worth Isd, Barron Ln, Fort Worth, Texas, 76112",
   "LATITUDE": 32.752,
   "LONGITUDE": -97.2087
 },
 {
   "CONAME": "Dunbar-6th Grade Middle School",
   "STREET": "Willie St",
   "CITY": "Fort Worth",
   "STATE_NAME": "Texas",
   "ZIP": 76105,
   "NAICS": 61111007,
   "SIC": "821103",
   "EMPNUM": 13,
   "SALESVOL": 0,
   "DESC_": "Dunbar-6th Grade Middle School, Willie St, Fort Worth, Texas, 76105",
   "LATITUDE": 32.7256,
   "LONGITUDE": -97.2443
 },
 {
   "CONAME": "Professional Academy Christian",
   "STREET": "Canton Dr",
   "CITY": "Fort Worth",
   "STATE_NAME": "Texas",
   "ZIP": 76112,
   "NAICS": 61111007,
   "SIC": "821103",
   "EMPNUM": 14,
   "SALESVOL": 0,
   "DESC_": "Professional Academy Christian, Canton Dr, Fort Worth, Texas, 76112",
   "LATITUDE": 32.7376,
   "LONGITUDE": -97.2296
 },
 {
   "CONAME": "Zion Prep Academy",
   "STREET": "Po Box 8744",
   "CITY": "Fort Worth",
   "STATE_NAME": "Texas",
   "ZIP": 76124,
   "NAICS": 61111004,
   "SIC": "821101",
   "EMPNUM": 15,
   "SALESVOL": 0,
   "DESC_": "Zion Prep Academy, Po Box 8744, Fort Worth, Texas, 76124",
   "LATITUDE": 32.7572,
   "LONGITUDE": -97.2135
 },
 {
   "CONAME": "Jean Mc Clung Middle School",
   "STREET": "Forest Ave",
   "CITY": "Fort Worth",
   "STATE_NAME": "Texas",
   "ZIP": 76112,
   "NAICS": 61111007,
   "SIC": "821103",
   "EMPNUM": 72,
   "SALESVOL": 0,
   "DESC_": "Jean Mc Clung Middle School, Forest Ave, Fort Worth, Texas, 76112",
   "LATITUDE": 32.7361,
   "LONGITUDE": -97.2199
 },
 {
   "CONAME": "Mc Donald Atwood Elementary",
   "STREET": "Barron Ln",
   "CITY": "Fort Worth",
   "STATE_NAME": "Texas",
   "ZIP": 76112,
   "NAICS": 61111007,
   "SIC": "821103",
   "EMPNUM": 60,
   "SALESVOL": 0,
   "DESC_": "Mc Donald Atwood Elementary, Barron Ln, Fort Worth, Texas, 76112",
   "LATITUDE": 32.752,
   "LONGITUDE": -97.2087
 },
 {
   "CONAME": "Ft Worth Adult Education Ctr",
   "STREET": "Meadowbrook Dr",
   "CITY": "Fort Worth",
   "STATE_NAME": "Texas",
   "ZIP": 76112,
   "NAICS": 61111007,
   "SIC": "821103",
   "EMPNUM": 22,
   "SALESVOL": 0,
   "DESC_": "Ft Worth Adult Education Ctr, Meadowbrook Dr, Fort Worth, Texas, 76112",
   "LATITUDE": 32.7461,
   "LONGITUDE": -97.2324
 },
 {
   "CONAME": "Eastern Hills High School",
   "STREET": "Shelton St",
   "CITY": "Fort Worth",
   "STATE_NAME": "Texas",
   "ZIP": 76112,
   "NAICS": 61111007,
   "SIC": "821103",
   "EMPNUM": 165,
   "SALESVOL": 0,
   "DESC_": "Eastern Hills High School, Shelton St, Fort Worth, Texas, 76112",
   "LATITUDE": 32.7475,
   "LONGITUDE": -97.2335
 },
 {
   "CONAME": "East Handley Elementary School",
   "STREET": "Mims St",
   "CITY": "Fort Worth",
   "STATE_NAME": "Texas",
   "ZIP": 76112,
   "NAICS": 61111007,
   "SIC": "821103",
   "EMPNUM": 50,
   "SALESVOL": 0,
   "DESC_": "East Handley Elementary School, Mims St, Fort Worth, Texas, 76112",
   "LATITUDE": 32.7412,
   "LONGITUDE": -97.2068
 },
 {
   "CONAME": "Young Mens Ledership Academy",
   "STREET": "Willie St",
   "CITY": "Fort Worth",
   "STATE_NAME": "Texas",
   "ZIP": 76105,
   "NAICS": 61111007,
   "SIC": "821103",
   "EMPNUM": 30,
   "SALESVOL": 0,
   "DESC_": "Young Mens Ledership Academy, Willie St, Fort Worth, Texas, 76105",
   "LATITUDE": 32.7256,
   "LONGITUDE": -97.2443
 },
 {
   "CONAME": "West Handley Elementary School",
   "STREET": "Putnam St",
   "CITY": "Fort Worth",
   "STATE_NAME": "Texas",
   "ZIP": 76112,
   "NAICS": 61111007,
   "SIC": "821103",
   "EMPNUM": 70,
   "SALESVOL": 0,
   "DESC_": "West Handley Elementary School, Putnam St, Fort Worth, Texas, 76112",
   "LATITUDE": 32.7401,
   "LONGITUDE": -97.227
 },
 {
   "CONAME": "St Ignatius College Prep",
   "STREET": "Shelton Dr",
   "CITY": "Fort Worth",
   "STATE_NAME": "Texas",
   "ZIP": 76120,
   "NAICS": 61111007,
   "SIC": "821103",
   "EMPNUM": 19,
   "SALESVOL": 0,
   "DESC_": "St Ignatius College Prep, Shelton Dr, Fort Worth, Texas, 76120",
   "LATITUDE": 32.7474,
   "LONGITUDE": -97.1763
 },
 {
   "CONAME": "Bill J Elliott Elementary",
   "STREET": "Cooks Ln",
   "CITY": "Fort Worth",
   "STATE_NAME": "Texas",
   "ZIP": 76120,
   "NAICS": 61111007,
   "SIC": "821103",
   "EMPNUM": 60,
   "SALESVOL": 0,
   "DESC_": "Bill J Elliott Elementary, Cooks Ln, Fort Worth, Texas, 76120",
   "LATITUDE": 32.7422,
   "LONGITUDE": -97.1811
 },
 {
   "CONAME": "Handley Middle School",
   "STREET": "Patino Rd",
   "CITY": "Fort Worth",
   "STATE_NAME": "Texas",
   "ZIP": 76112,
   "NAICS": 61111007,
   "SIC": "821103",
   "EMPNUM": 89,
   "SALESVOL": 0,
   "DESC_": "Handley Middle School, Patino Rd, Fort Worth, Texas, 76112",
   "LATITUDE": 32.7391,
   "LONGITUDE": -97.188
 },
 {
   "CONAME": "Temple Christian School",
   "STREET": "Randol Mill Rd",
   "CITY": "Fort Worth",
   "STATE_NAME": "Texas",
   "ZIP": 76120,
   "NAICS": 61111007,
   "SIC": "821103",
   "EMPNUM": 50,
   "SALESVOL": 0,
   "DESC_": "Temple Christian School, Randol Mill Rd, Fort Worth, Texas, 76120",
   "LATITUDE": 32.7787,
   "LONGITUDE": -97.2078
 },
 {
   "CONAME": "John T White Elementary School",
   "STREET": "John T White Rd",
   "CITY": "Fort Worth",
   "STATE_NAME": "Texas",
   "ZIP": 76120,
   "NAICS": 61111007,
   "SIC": "821103",
   "EMPNUM": 59,
   "SALESVOL": 0,
   "DESC_": "John T White Elementary School, John T White Rd, Fort Worth, Texas, 76120",
   "LATITUDE": 32.7649,
   "LONGITUDE": -97.198
 },
 {
   "CONAME": "Richard J Wilson Elementary",
   "STREET": "W Fogg St",
   "CITY": "Fort Worth",
   "STATE_NAME": "Texas",
   "ZIP": 76110,
   "NAICS": 61111007,
   "SIC": "821103",
   "EMPNUM": 65,
   "SALESVOL": 0,
   "DESC_": "Richard J Wilson Elementary, W Fogg St, Fort Worth, Texas, 76110",
   "LATITUDE": 32.6918,
   "LONGITUDE": -97.3349
 },
 {
   "CONAME": "West Academy",
   "STREET": "Mccart Ave",
   "CITY": "Fort Worth",
   "STATE_NAME": "Texas",
   "ZIP": 76110,
   "NAICS": 61111007,
   "SIC": "821103",
   "EMPNUM": 7,
   "SALESVOL": 0,
   "DESC_": "West Academy, Mccart Ave, Fort Worth, Texas, 76110",
   "LATITUDE": 32.6918,
   "LONGITUDE": -97.3527
 },
 {
   "CONAME": "Fort Worth Independent Sch Dst",
   "STREET": "Mccart Ave",
   "CITY": "Fort Worth",
   "STATE_NAME": "Texas",
   "ZIP": 76110,
   "NAICS": 61111018,
   "SIC": "821120",
   "EMPNUM": 50,
   "SALESVOL": 0,
   "DESC_": "Fort Worth Independent Sch Dst, Mccart Ave, Fort Worth, Texas, 76110",
   "LATITUDE": 32.705,
   "LONGITUDE": -97.3534
 },
 {
   "CONAME": "Fort Worth Isd",
   "STREET": "Lipscomb St",
   "CITY": "Fort Worth",
   "STATE_NAME": "Texas",
   "ZIP": 76110,
   "NAICS": 61111007,
   "SIC": "821103",
   "EMPNUM": 22,
   "SALESVOL": 0,
   "DESC_": "Fort Worth Isd, Lipscomb St, Fort Worth, Texas, 76110",
   "LATITUDE": 32.718,
   "LONGITUDE": -97.3333
 },
 {
   "CONAME": "Fort Worth Isd",
   "STREET": "Forest Park Blvd",
   "CITY": "Fort Worth",
   "STATE_NAME": "Texas",
   "ZIP": 76110,
   "NAICS": 61111007,
   "SIC": "821103",
   "EMPNUM": 22,
   "SALESVOL": 0,
   "DESC_": "Fort Worth Isd, Forest Park Blvd, Fort Worth, Texas, 76110",
   "LATITUDE": 32.7079,
   "LONGITUDE": -97.3508
 },
 {
   "CONAME": "Daggett Montessori School",
   "STREET": "W Jessamine St",
   "CITY": "Fort Worth",
   "STATE_NAME": "Texas",
   "ZIP": 76110,
   "NAICS": 61111003,
   "SIC": "821105",
   "EMPNUM": 68,
   "SALESVOL": 0,
   "DESC_": "Daggett Montessori School, W Jessamine St, Fort Worth, Texas, 76110",
   "LATITUDE": 32.7181,
   "LONGITUDE": -97.3325
 },
 {
   "CONAME": "Travis Avenue Baptist School",
   "STREET": "W Berry St",
   "CITY": "Fort Worth",
   "STATE_NAME": "Texas",
   "ZIP": 76110,
   "NAICS": 61111004,
   "SIC": "821101",
   "EMPNUM": 15,
   "SALESVOL": 0,
   "DESC_": "Travis Avenue Baptist School, W Berry St, Fort Worth, Texas, 76110",
   "LATITUDE": 32.7068,
   "LONGITUDE": -97.3333
 },
 {
   "CONAME": "R L Paschal High School",
   "STREET": "Forest Park Blvd",
   "CITY": "Fort Worth",
   "STATE_NAME": "Texas",
   "ZIP": 76110,
   "NAICS": 61111007,
   "SIC": "821103",
   "EMPNUM": 90,
   "SALESVOL": 0,
   "DESC_": "R L Paschal High School, Forest Park Blvd, Fort Worth, Texas, 76110",
   "LATITUDE": 32.7079,
   "LONGITUDE": -97.3508
 },
 {
   "CONAME": "Rosemont Sixth Grade School",
   "STREET": "Mccart Ave",
   "CITY": "Fort Worth",
   "STATE_NAME": "Texas",
   "ZIP": 76110,
   "NAICS": 61111007,
   "SIC": "821103",
   "EMPNUM": 54,
   "SALESVOL": 0,
   "DESC_": "Rosemont Sixth Grade School, Mccart Ave, Fort Worth, Texas, 76110",
   "LATITUDE": 32.6913,
   "LONGITUDE": -97.3539
 },
 {
   "CONAME": "E M Daggett Elementary School",
   "STREET": "Page Ave",
   "CITY": "Fort Worth",
   "STATE_NAME": "Texas",
   "ZIP": 76110,
   "NAICS": 61111007,
   "SIC": "821103",
   "EMPNUM": 85,
   "SALESVOL": 0,
   "DESC_": "E M Daggett Elementary School, Page Ave, Fort Worth, Texas, 76110",
   "LATITUDE": 32.7166,
   "LONGITUDE": -97.3345
 },
 {
   "CONAME": "Our Lady-victory Catholic Schl",
   "STREET": "Hemphill St",
   "CITY": "Fort Worth",
   "STATE_NAME": "Texas",
   "ZIP": 76110,
   "NAICS": 61111004,
   "SIC": "821101",
   "EMPNUM": 20,
   "SALESVOL": 0,
   "DESC_": "Our Lady-victory Catholic Schl, Hemphill St, Fort Worth, Texas, 76110",
   "LATITUDE": 32.7005,
   "LONGITUDE": -97.3332
 },
 {
   "CONAME": "George C Clarke Elementary",
   "STREET": "S Henderson St",
   "CITY": "Fort Worth",
   "STATE_NAME": "Texas",
   "ZIP": 76110,
   "NAICS": 61111007,
   "SIC": "821103",
   "EMPNUM": 100,
   "SALESVOL": 0,
   "DESC_": "George C Clarke Elementary, S Henderson St, Fort Worth, Texas, 76110",
   "LATITUDE": 32.7021,
   "LONGITUDE": -97.3385
 },
 {
   "CONAME": "Morningside Middle School",
   "STREET": "Mississippi Ave",
   "CITY": "Fort Worth",
   "STATE_NAME": "Texas",
   "ZIP": 76104,
   "NAICS": 61111007,
   "SIC": "821103",
   "EMPNUM": 84,
   "SALESVOL": 0,
   "DESC_": "Morningside Middle School, Mississippi Ave, Fort Worth, Texas, 76104",
   "LATITUDE": 32.7118,
   "LONGITUDE": -97.3112
 },
 {
   "CONAME": "Worth Heights Elementary Schl",
   "STREET": "E Butler St",
   "CITY": "Fort Worth",
   "STATE_NAME": "Texas",
   "ZIP": 76110,
   "NAICS": 61111007,
   "SIC": "821103",
   "EMPNUM": 95,
   "SALESVOL": 0,
   "DESC_": "Worth Heights Elementary Schl, E Butler St, Fort Worth, Texas, 76110",
   "LATITUDE": 32.6961,
   "LONGITUDE": -97.322
 },
 {
   "CONAME": "Trinity Basin Preparatory",
   "STREET": "E Pafford St",
   "CITY": "Fort Worth",
   "STATE_NAME": "Texas",
   "ZIP": 76110,
   "NAICS": 61111007,
   "SIC": "821103",
   "EMPNUM": 15,
   "SALESVOL": 0,
   "DESC_": "Trinity Basin Preparatory, E Pafford St, Fort Worth, Texas, 76110",
   "LATITUDE": 32.6919,
   "LONGITUDE": -97.3259
 },
 {
   "CONAME": "Trinity Basin Preparatory Inc",
   "STREET": "W Fogg St",
   "CITY": "Fort Worth",
   "STATE_NAME": "Texas",
   "ZIP": 76110,
   "NAICS": 61111007,
   "SIC": "821103",
   "EMPNUM": 15,
   "SALESVOL": 0,
   "DESC_": "Trinity Basin Preparatory Inc, W Fogg St, Fort Worth, Texas, 76110",
   "LATITUDE": 32.6911,
   "LONGITUDE": -97.3267
 },
 {
   "CONAME": "Edward J Briscoe Elementary",
   "STREET": "Yuma Ave",
   "CITY": "Fort Worth",
   "STATE_NAME": "Texas",
   "ZIP": 76104,
   "NAICS": 61111007,
   "SIC": "821103",
   "EMPNUM": 63,
   "SALESVOL": 0,
   "DESC_": "Edward J Briscoe Elementary, Yuma Ave, Fort Worth, Texas, 76104",
   "LATITUDE": 32.7116,
   "LONGITUDE": -97.3072
 },
 {
   "CONAME": "Morningside Elementary School",
   "STREET": "Evans Ave",
   "CITY": "Fort Worth",
   "STATE_NAME": "Texas",
   "ZIP": 76104,
   "NAICS": 61111007,
   "SIC": "821103",
   "EMPNUM": 55,
   "SALESVOL": 0,
   "DESC_": "Morningside Elementary School, Evans Ave, Fort Worth, Texas, 76104",
   "LATITUDE": 32.7143,
   "LONGITUDE": -97.3171
 },
 {
   "CONAME": "Cassata High School",
   "STREET": "Hemphill St",
   "CITY": "Fort Worth",
   "STATE_NAME": "Texas",
   "ZIP": 76104,
   "NAICS": 61111007,
   "SIC": "821103",
   "EMPNUM": 16,
   "SALESVOL": 0,
   "DESC_": "Cassata High School, Hemphill St, Fort Worth, Texas, 76104",
   "LATITUDE": 32.729,
   "LONGITUDE": -97.332
 },
 {
   "CONAME": "Lily B Clayton Elementary Sch",
   "STREET": "Park Place Ave",
   "CITY": "Fort Worth",
   "STATE_NAME": "Texas",
   "ZIP": 76110,
   "NAICS": 61111007,
   "SIC": "821103",
   "EMPNUM": 55,
   "SALESVOL": 0,
   "DESC_": "Lily B Clayton Elementary Sch, Park Place Ave, Fort Worth, Texas, 76110",
   "LATITUDE": 32.7272,
   "LONGITUDE": -97.3482
 },
 {
   "CONAME": "Success High School",
   "STREET": "W Cannon St",
   "CITY": "Fort Worth",
   "STATE_NAME": "Texas",
   "ZIP": 76104,
   "NAICS": 61111007,
   "SIC": "821103",
   "EMPNUM": 40,
   "SALESVOL": 0,
   "DESC_": "Success High School, W Cannon St, Fort Worth, Texas, 76104",
   "LATITUDE": 32.7357,
   "LONGITUDE": -97.3364
 },
 {
   "CONAME": "Fort Worth Isd",
   "STREET": "W Cannon St",
   "CITY": "Fort Worth",
   "STATE_NAME": "Texas",
   "ZIP": 76104,
   "NAICS": 61111007,
   "SIC": "821103",
   "EMPNUM": 175,
   "SALESVOL": 0,
   "DESC_": "Fort Worth Isd, W Cannon St, Fort Worth, Texas, 76104",
   "LATITUDE": 32.7357,
   "LONGITUDE": -97.3364
 },
 {
   "CONAME": "Young Women's Leadership Acad",
   "STREET": "W Magnolia Ave",
   "CITY": "Fort Worth",
   "STATE_NAME": "Texas",
   "ZIP": 76104,
   "NAICS": 61111007,
   "SIC": "821103",
   "EMPNUM": 72,
   "SALESVOL": 0,
   "DESC_": "Young Women's Leadership Acad, W Magnolia Ave, Fort Worth, Texas, 76104",
   "LATITUDE": 32.7311,
   "LONGITUDE": -97.3364
 },
 {
   "CONAME": "De Zavala Elementary School",
   "STREET": "College Ave",
   "CITY": "Fort Worth",
   "STATE_NAME": "Texas",
   "ZIP": 76104,
   "NAICS": 61111007,
   "SIC": "821103",
   "EMPNUM": 60,
   "SALESVOL": 0,
   "DESC_": "De Zavala Elementary School, College Ave, Fort Worth, Texas, 76104",
   "LATITUDE": 32.7284,
   "LONGITUDE": -97.3346
 },
 {
   "CONAME": "Trimble Technical High School",
   "STREET": "W Cannon St",
   "CITY": "Fort Worth",
   "STATE_NAME": "Texas",
   "ZIP": 76104,
   "NAICS": 61111007,
   "SIC": "821103",
   "EMPNUM": 176,
   "SALESVOL": 0,
   "DESC_": "Trimble Technical High School, W Cannon St, Fort Worth, Texas, 76104",
   "LATITUDE": 32.7357,
   "LONGITUDE": -97.3364
 },
 {
   "CONAME": "St Paul Lutheran School",
   "STREET": "West Fwy",
   "CITY": "Fort Worth",
   "STATE_NAME": "Texas",
   "ZIP": 76102,
   "NAICS": 61111004,
   "SIC": "821101",
   "EMPNUM": 50,
   "SALESVOL": 0,
   "DESC_": "St Paul Lutheran School, West Fwy, Fort Worth, Texas, 76102",
   "LATITUDE": 32.7417,
   "LONGITUDE": -97.3455
 },
 {
   "CONAME": "Child Study Ctr",
   "STREET": "W Lancaster Ave",
   "CITY": "Fort Worth",
   "STATE_NAME": "Texas",
   "ZIP": 76102,
   "NAICS": 61111010,
   "SIC": "821107",
   "EMPNUM": 75,
   "SALESVOL": 0,
   "DESC_": "Child Study Ctr, W Lancaster Ave, Fort Worth, Texas, 76102",
   "LATITUDE": 32.7478,
   "LONGITUDE": -97.3404
 },
 {
   "CONAME": "Memorable Moments",
   "STREET": "",
   "CITY": "Fort Worth",
   "STATE_NAME": "Texas",
   "ZIP": 76102,
   "NAICS": 61111007,
   "SIC": "821103",
   "EMPNUM": 13,
   "SALESVOL": 0,
   "DESC_": "Memorable Moments,  , Fort Worth, Texas, 76102",
   "LATITUDE": 32.7577,
   "LONGITUDE": -97.3333
 },
 {
   "CONAME": "Boswell Agricultural Farm",
   "STREET": "Jim Wright Fwy Nw",
   "CITY": "Saginaw",
   "STATE_NAME": "Texas",
   "ZIP": 76179,
   "NAICS": 61111007,
   "SIC": "821103",
   "EMPNUM": 90,
   "SALESVOL": 0,
   "DESC_": "Boswell Agricultural Farm, Jim Wright Fwy Nw, Saginaw, Texas, 76179",
   "LATITUDE": 32.8392,
   "LONGITUDE": -97.3548
 },
 {
   "CONAME": "Bethesda Christian School",
   "STREET": "N Beach St",
   "CITY": "Haltom City",
   "STATE_NAME": "Texas",
   "ZIP": 76137,
   "NAICS": 61111007,
   "SIC": "821103",
   "EMPNUM": 60,
   "SALESVOL": 0,
   "DESC_": "Bethesda Christian School, N Beach St, Haltom City, Texas, 76137",
   "LATITUDE": 32.8274,
   "LONGITUDE": -97.2904
 },
 {
   "CONAME": "Parkview Elementary School",
   "STREET": "Bayberry Dr",
   "CITY": "Fort Worth",
   "STATE_NAME": "Texas",
   "ZIP": 76137,
   "NAICS": 61111007,
   "SIC": "821103",
   "EMPNUM": 80,
   "SALESVOL": 0,
   "DESC_": "Parkview Elementary School, Bayberry Dr, Fort Worth, Texas, 76137",
   "LATITUDE": 32.8661,
   "LONGITUDE": -97.2946
 },
 {
   "CONAME": "Fossil Ridge High School",
   "STREET": "Thompson Rd",
   "CITY": "Fort Worth",
   "STATE_NAME": "Texas",
   "ZIP": 76244,
   "NAICS": 61111007,
   "SIC": "821103",
   "EMPNUM": 200,
   "SALESVOL": 0,
   "DESC_": "Fossil Ridge High School, Thompson Rd, Fort Worth, Texas, 76244",
   "LATITUDE": 32.8908,
   "LONGITUDE": -97.2942
 },
 {
   "CONAME": "Keller Isd",
   "STREET": "Staghorn Cir S",
   "CITY": "Fort Worth",
   "STATE_NAME": "Texas",
   "ZIP": 76137,
   "NAICS": 61111007,
   "SIC": "821103",
   "EMPNUM": 13,
   "SALESVOL": 0,
   "DESC_": "Keller Isd, Staghorn Cir S, Fort Worth, Texas, 76137",
   "LATITUDE": 32.8777,
   "LONGITUDE": -97.3012
 },
 {
   "CONAME": "Park Glen Elementary School",
   "STREET": "Glen Canyon Rd",
   "CITY": "Fort Worth",
   "STATE_NAME": "Texas",
   "ZIP": 76137,
   "NAICS": 61111007,
   "SIC": "821103",
   "EMPNUM": 67,
   "SALESVOL": 0,
   "DESC_": "Park Glen Elementary School, Glen Canyon Rd, Fort Worth, Texas, 76137",
   "LATITUDE": 32.8806,
   "LONGITUDE": -97.2749
 },
 {
   "CONAME": "Hillwood Middle School",
   "STREET": "Parkwood Hill Blvd",
   "CITY": "Fort Worth",
   "STATE_NAME": "Texas",
   "ZIP": 76137,
   "NAICS": 61111007,
   "SIC": "821103",
   "EMPNUM": 100,
   "SALESVOL": 0,
   "DESC_": "Hillwood Middle School, Parkwood Hill Blvd, Fort Worth, Texas, 76137",
   "LATITUDE": 32.8892,
   "LONGITUDE": -97.2619
 },
 {
   "CONAME": "Cambridge Christian Academy",
   "STREET": "Caribou Ct",
   "CITY": "Fort Worth",
   "STATE_NAME": "Texas",
   "ZIP": 76137,
   "NAICS": 61111007,
   "SIC": "821103",
   "EMPNUM": 7,
   "SALESVOL": 0,
   "DESC_": "Cambridge Christian Academy, Caribou Ct, Fort Worth, Texas, 76137",
   "LATITUDE": 32.8771,
   "LONGITUDE": -97.2782
 },
 {
   "CONAME": "Bluebonnet Elementary School",
   "STREET": "Teal Dr",
   "CITY": "Fort Worth",
   "STATE_NAME": "Texas",
   "ZIP": 76137,
   "NAICS": 61111007,
   "SIC": "821103",
   "EMPNUM": 80,
   "SALESVOL": 0,
   "DESC_": "Bluebonnet Elementary School, Teal Dr, Fort Worth, Texas, 76137",
   "LATITUDE": 32.8667,
   "LONGITUDE": -97.277
 },
 {
   "CONAME": "Fossil Hill Middle School",
   "STREET": "Staghorn Cir S",
   "CITY": "Fort Worth",
   "STATE_NAME": "Texas",
   "ZIP": 76137,
   "NAICS": 61111007,
   "SIC": "821103",
   "EMPNUM": 72,
   "SALESVOL": 0,
   "DESC_": "Fossil Hill Middle School, Staghorn Cir S, Fort Worth, Texas, 76137",
   "LATITUDE": 32.8777,
   "LONGITUDE": -97.3012
 },
 {
   "CONAME": "Parkwood Hill Intermediate",
   "STREET": "Parkwood Hill Blvd",
   "CITY": "Fort Worth",
   "STATE_NAME": "Texas",
   "ZIP": 76137,
   "NAICS": 61111007,
   "SIC": "821103",
   "EMPNUM": 101,
   "SALESVOL": 0,
   "DESC_": "Parkwood Hill Intermediate, Parkwood Hill Blvd, Fort Worth, Texas, 76137",
   "LATITUDE": 32.8886,
   "LONGITUDE": -97.2654
 },
 {
   "CONAME": "Cambridge Chrisitan Academy",
   "STREET": "Caribou Ct",
   "CITY": "Fort Worth",
   "STATE_NAME": "Texas",
   "ZIP": 76137,
   "NAICS": 61111004,
   "SIC": "821101",
   "EMPNUM": 15,
   "SALESVOL": 0,
   "DESC_": "Cambridge Chrisitan Academy, Caribou Ct, Fort Worth, Texas, 76137",
   "LATITUDE": 32.8771,
   "LONGITUDE": -97.2782
 },
 {
   "CONAME": "Chisholm Trail Intermediate",
   "STREET": "Summerfields Blvd",
   "CITY": "Fort Worth",
   "STATE_NAME": "Texas",
   "ZIP": 76137,
   "NAICS": 61111007,
   "SIC": "821103",
   "EMPNUM": 10,
   "SALESVOL": 0,
   "DESC_": "Chisholm Trail Intermediate, Summerfields Blvd, Fort Worth, Texas, 76137",
   "LATITUDE": 32.8872,
   "LONGITUDE": -97.3011
 },
 {
   "CONAME": "Heritage Elementary School",
   "STREET": "Thompson Rd",
   "CITY": "Fort Worth",
   "STATE_NAME": "Texas",
   "ZIP": 76244,
   "NAICS": 61111007,
   "SIC": "821103",
   "EMPNUM": 115,
   "SALESVOL": 0,
   "DESC_": "Heritage Elementary School, Thompson Rd, Fort Worth, Texas, 76244",
   "LATITUDE": 32.8932,
   "LONGITUDE": -97.296
 },
 {
   "CONAME": "Bette Perot Elementary School",
   "STREET": "General Worth Dr",
   "CITY": "Fort Worth",
   "STATE_NAME": "Texas",
   "ZIP": 76244,
   "NAICS": 61111007,
   "SIC": "821103",
   "EMPNUM": 70,
   "SALESVOL": 0,
   "DESC_": "Bette Perot Elementary School, General Worth Dr, Fort Worth, Texas, 76244",
   "LATITUDE": 32.9094,
   "LONGITUDE": -97.3044
 },
 {
   "CONAME": "Northwest High School",
   "STREET": "",
   "CITY": "Fort Worth",
   "STATE_NAME": "Texas",
   "ZIP": 76177,
   "NAICS": 61111007,
   "SIC": "821103",
   "EMPNUM": 22,
   "SALESVOL": 0,
   "DESC_": "Northwest High School,  , Fort Worth, Texas, 76177",
   "LATITUDE": 32.9421,
   "LONGITUDE": -97.315
 },
 {
   "CONAME": "O a Peterson Elementary",
   "STREET": "Winter Hawk Dr",
   "CITY": "Fort Worth",
   "STATE_NAME": "Texas",
   "ZIP": 76177,
   "NAICS": 61111007,
   "SIC": "821103",
   "EMPNUM": 60,
   "SALESVOL": 0,
   "DESC_": "O a Peterson Elementary, Winter Hawk Dr, Fort Worth, Texas, 76177",
   "LATITUDE": 32.9267,
   "LONGITUDE": -97.3301
 },
 {
   "CONAME": "Keller Independent School Dist",
   "STREET": "General Worth Dr",
   "CITY": "Fort Worth",
   "STATE_NAME": "Texas",
   "ZIP": 76244,
   "NAICS": 61111007,
   "SIC": "821103",
   "EMPNUM": 13,
   "SALESVOL": 0,
   "DESC_": "Keller Independent School Dist, General Worth Dr, Fort Worth, Texas, 76244",
   "LATITUDE": 32.9094,
   "LONGITUDE": -97.3044
 },
 {
   "CONAME": "Children's Lighthouse-heritage",
   "STREET": "Shiver Rd",
   "CITY": "Fort Worth",
   "STATE_NAME": "Texas",
   "ZIP": 76244,
   "NAICS": 61111007,
   "SIC": "821103",
   "EMPNUM": 29,
   "SALESVOL": 0,
   "DESC_": "Children's Lighthouse-heritage, Shiver Rd, Fort Worth, Texas, 76244",
   "LATITUDE": 32.902,
   "LONGITUDE": -97.2816
 },
 {
   "CONAME": "Freedom Elementary School",
   "STREET": "Wall Price Keller Rd",
   "CITY": "Fort Worth",
   "STATE_NAME": "Texas",
   "ZIP": 76244,
   "NAICS": 61111007,
   "SIC": "821103",
   "EMPNUM": 75,
   "SALESVOL": 0,
   "DESC_": "Freedom Elementary School, Wall Price Keller Rd, Fort Worth, Texas, 76244",
   "LATITUDE": 32.9181,
   "LONGITUDE": -97.2685
 },
 {
   "CONAME": "Central High School",
   "STREET": "Ray White Rd",
   "CITY": "Fort Worth",
   "STATE_NAME": "Texas",
   "ZIP": 76244,
   "NAICS": 61111007,
   "SIC": "821103",
   "EMPNUM": 90,
   "SALESVOL": 0,
   "DESC_": "Central High School, Ray White Rd, Fort Worth, Texas, 76244",
   "LATITUDE": 32.9092,
   "LONGITUDE": -97.2686
 },
 {
   "CONAME": "North Texas Leadership Academy",
   "STREET": "Alta Vista Rd",
   "CITY": "Fort Worth",
   "STATE_NAME": "Texas",
   "ZIP": 76244,
   "NAICS": 61111007,
   "SIC": "821103",
   "EMPNUM": 13,
   "SALESVOL": 0,
   "DESC_": "North Texas Leadership Academy, Alta Vista Rd, Fort Worth, Texas, 76244",
   "LATITUDE": 32.9225,
   "LONGITUDE": -97.2842
 },
 {
   "CONAME": "Lone Star Elementary School",
   "STREET": "Shiver Rd",
   "CITY": "Fort Worth",
   "STATE_NAME": "Texas",
   "ZIP": 76244,
   "NAICS": 61111007,
   "SIC": "821103",
   "EMPNUM": 80,
   "SALESVOL": 0,
   "DESC_": "Lone Star Elementary School, Shiver Rd, Fort Worth, Texas, 76244",
   "LATITUDE": 32.9033,
   "LONGITUDE": -97.2855
 },
 {
   "CONAME": "Eagle Ridge Elementary School",
   "STREET": "Alta Vista Rd",
   "CITY": "Fort Worth",
   "STATE_NAME": "Texas",
   "ZIP": 76244,
   "NAICS": 61111007,
   "SIC": "821103",
   "EMPNUM": 43,
   "SALESVOL": 0,
   "DESC_": "Eagle Ridge Elementary School, Alta Vista Rd, Fort Worth, Texas, 76244",
   "LATITUDE": 32.917,
   "LONGITUDE": -97.2868
 },
 {
   "CONAME": "Friendship Elementary School",
   "STREET": "Shiver Rd",
   "CITY": "Fort Worth",
   "STATE_NAME": "Texas",
   "ZIP": 76244,
   "NAICS": 61111007,
   "SIC": "821103",
   "EMPNUM": 60,
   "SALESVOL": 0,
   "DESC_": "Friendship Elementary School, Shiver Rd, Fort Worth, Texas, 76244",
   "LATITUDE": 32.9008,
   "LONGITUDE": -97.2682
 },
 {
   "CONAME": "Keller Isd",
   "STREET": "Van Zandt Dr",
   "CITY": "Fort Worth",
   "STATE_NAME": "Texas",
   "ZIP": 76244,
   "NAICS": 61111007,
   "SIC": "821103",
   "EMPNUM": 13,
   "SALESVOL": 0,
   "DESC_": "Keller Isd, Van Zandt Dr, Fort Worth, Texas, 76244",
   "LATITUDE": 32.9096,
   "LONGITUDE": -97.2807
 },
 {
   "CONAME": "International Leadership of Tx",
   "STREET": "Heritage Trace Pkwy",
   "CITY": "Fort Worth",
   "STATE_NAME": "Texas",
   "ZIP": 76244,
   "NAICS": 61111007,
   "SIC": "821103",
   "EMPNUM": 13,
   "SALESVOL": 0,
   "DESC_": "International Leadership of Tx, Heritage Trace Pkwy, Fort Worth, Texas, 76244",
   "LATITUDE": 32.9169,
   "LONGITUDE": -97.2959
 },
 {
   "CONAME": "Woodland Springs Elementary",
   "STREET": "Woodland Springs Dr",
   "CITY": "Fort Worth",
   "STATE_NAME": "Texas",
   "ZIP": 76244,
   "NAICS": 61111007,
   "SIC": "821103",
   "EMPNUM": 60,
   "SALESVOL": 0,
   "DESC_": "Woodland Springs Elementary, Woodland Springs Dr, Fort Worth, Texas, 76244",
   "LATITUDE": 32.9465,
   "LONGITUDE": -97.2623
 },
 {
   "CONAME": "Timbercreek High School",
   "STREET": "Timberland Blvd",
   "CITY": "Fort Worth",
   "STATE_NAME": "Texas",
   "ZIP": 76244,
   "NAICS": 61111007,
   "SIC": "821103",
   "EMPNUM": 90,
   "SALESVOL": 0,
   "DESC_": "Timbercreek High School, Timberland Blvd, Fort Worth, Texas, 76244",
   "LATITUDE": 32.9495,
   "LONGITUDE": -97.2882
 },
 {
   "CONAME": "Trinity Springs Middle School",
   "STREET": "Keller Hicks Rd",
   "CITY": "Fort Worth",
   "STATE_NAME": "Texas",
   "ZIP": 76244,
   "NAICS": 61111007,
   "SIC": "821103",
   "EMPNUM": 90,
   "SALESVOL": 0,
   "DESC_": "Trinity Springs Middle School, Keller Hicks Rd, Fort Worth, Texas, 76244",
   "LATITUDE": 32.9389,
   "LONGITUDE": -97.2836
 },
 {
   "CONAME": "Trinity Meadows Intermediate",
   "STREET": "Keller Hicks Rd",
   "CITY": "Fort Worth",
   "STATE_NAME": "Texas",
   "ZIP": 76244,
   "NAICS": 61111007,
   "SIC": "821103",
   "EMPNUM": 100,
   "SALESVOL": 0,
   "DESC_": "Trinity Meadows Intermediate, Keller Hicks Rd, Fort Worth, Texas, 76244",
   "LATITUDE": 32.9374,
   "LONGITUDE": -97.2858
 },
 {
   "CONAME": "Independence Elementary School",
   "STREET": "Bray Birch Ln",
   "CITY": "Fort Worth",
   "STATE_NAME": "Texas",
   "ZIP": 76244,
   "NAICS": 61111007,
   "SIC": "821103",
   "EMPNUM": 40,
   "SALESVOL": 0,
   "DESC_": "Independence Elementary School, Bray Birch Ln, Fort Worth, Texas, 76244",
   "LATITUDE": 32.9441,
   "LONGITUDE": -97.2746
 },
 {
   "CONAME": "Kay Granger Elementary School",
   "STREET": "Saratoga Springs Cir",
   "CITY": "Fort Worth",
   "STATE_NAME": "Texas",
   "ZIP": 76244,
   "NAICS": 61111007,
   "SIC": "821103",
   "EMPNUM": 70,
   "SALESVOL": 0,
   "DESC_": "Kay Granger Elementary School, Saratoga Springs Cir, Fort Worth, Texas, 76244",
   "LATITUDE": 32.9579,
   "LONGITUDE": -97.2897
 },
 {
   "CONAME": "Watkins Driver Education Schl",
   "STREET": "Po Box 866",
   "CITY": "Keller",
   "STATE_NAME": "Texas",
   "ZIP": 76244,
   "NAICS": 61111007,
   "SIC": "821103",
   "EMPNUM": 13,
   "SALESVOL": 0,
   "DESC_": "Watkins Driver Education Schl, Po Box 866, Keller, Texas, 76244",
   "LATITUDE": 32.9314,
   "LONGITUDE": -97.28
 },
 {
   "CONAME": "Mid-cities Learning Ctr Inc",
   "STREET": "S Pipeline Rd",
   "CITY": "Euless",
   "STATE_NAME": "Texas",
   "ZIP": 76040,
   "NAICS": 61111007,
   "SIC": "821103",
   "EMPNUM": 13,
   "SALESVOL": 0,
   "DESC_": "Mid-cities Learning Ctr Inc, S Pipeline Rd, Euless, Texas, 76040",
   "LATITUDE": 32.8224,
   "LONGITUDE": -97.0946
 },
 {
   "CONAME": "Trinity Valley School",
   "STREET": "Dutch Branch Rd",
   "CITY": "Fort Worth",
   "STATE_NAME": "Texas",
   "ZIP": 76132,
   "NAICS": 61111007,
   "SIC": "821103",
   "EMPNUM": 135,
   "SALESVOL": 0,
   "DESC_": "Trinity Valley School, Dutch Branch Rd, Fort Worth, Texas, 76132",
   "LATITUDE": 32.6545,
   "LONGITUDE": -97.4271
 },
 {
   "CONAME": "Fort Worth Academy",
   "STREET": "Dutch Branch Rd",
   "CITY": "Fort Worth",
   "STATE_NAME": "Texas",
   "ZIP": 76132,
   "NAICS": 61111007,
   "SIC": "821103",
   "EMPNUM": 45,
   "SALESVOL": 0,
   "DESC_": "Fort Worth Academy, Dutch Branch Rd, Fort Worth, Texas, 76132",
   "LATITUDE": 32.6515,
   "LONGITUDE": -97.4216
 },
 {
   "CONAME": "St Peters Classical School",
   "STREET": "Bellaire Dr S",
   "CITY": "Fort Worth",
   "STATE_NAME": "Texas",
   "ZIP": 76132,
   "NAICS": 61111004,
   "SIC": "821101",
   "EMPNUM": 17,
   "SALESVOL": 0,
   "DESC_": "St Peters Classical School, Bellaire Dr S, Fort Worth, Texas, 76132",
   "LATITUDE": 32.6637,
   "LONGITUDE": -97.4282
 },
 {
   "CONAME": "Oakmont Elementary School",
   "STREET": "Oakmont Trl",
   "CITY": "Fort Worth",
   "STATE_NAME": "Texas",
   "ZIP": 76132,
   "NAICS": 61111007,
   "SIC": "821103",
   "EMPNUM": 80,
   "SALESVOL": 0,
   "DESC_": "Oakmont Elementary School, Oakmont Trl, Fort Worth, Texas, 76132",
   "LATITUDE": 32.6544,
   "LONGITUDE": -97.4116
 },
 {
   "CONAME": "Southwest Christian School Inc",
   "STREET": "Dan Danciger Rd",
   "CITY": "Fort Worth",
   "STATE_NAME": "Texas",
   "ZIP": 76133,
   "NAICS": 61111004,
   "SIC": "821101",
   "EMPNUM": 65,
   "SALESVOL": 0,
   "DESC_": "Southwest Christian School Inc, Dan Danciger Rd, Fort Worth, Texas, 76133",
   "LATITUDE": 32.6494,
   "LONGITUDE": -97.406
 },
 {
   "CONAME": "Southwest High School",
   "STREET": "Altamesa Blvd",
   "CITY": "Fort Worth",
   "STATE_NAME": "Texas",
   "ZIP": 76133,
   "NAICS": 61111007,
   "SIC": "821103",
   "EMPNUM": 174,
   "SALESVOL": 0,
   "DESC_": "Southwest High School, Altamesa Blvd, Fort Worth, Texas, 76133",
   "LATITUDE": 32.6529,
   "LONGITUDE": -97.3806
 },
 {
   "CONAME": "Bruce Shulkey Elementary Schl",
   "STREET": "Whitman Ave",
   "CITY": "Fort Worth",
   "STATE_NAME": "Texas",
   "ZIP": 76133,
   "NAICS": 61111007,
   "SIC": "821103",
   "EMPNUM": 70,
   "SALESVOL": 0,
   "DESC_": "Bruce Shulkey Elementary Schl, Whitman Ave, Fort Worth, Texas, 76133",
   "LATITUDE": 32.6648,
   "LONGITUDE": -97.3832
 },
 {
   "CONAME": "Wedgwood Sixth Grade",
   "STREET": "Belden Ave",
   "CITY": "Fort Worth",
   "STATE_NAME": "Texas",
   "ZIP": 76132,
   "NAICS": 61111007,
   "SIC": "821103",
   "EMPNUM": 60,
   "SALESVOL": 0,
   "DESC_": "Wedgwood Sixth Grade, Belden Ave, Fort Worth, Texas, 76132",
   "LATITUDE": 32.6768,
   "LONGITUDE": -97.3866
 },
 {
   "CONAME": "J T Stevens Elementary School",
   "STREET": "Wrigley Way",
   "CITY": "Fort Worth",
   "STATE_NAME": "Texas",
   "ZIP": 76133,
   "NAICS": 61111007,
   "SIC": "821103",
   "EMPNUM": 75,
   "SALESVOL": 0,
   "DESC_": "J T Stevens Elementary School, Wrigley Way, Fort Worth, Texas, 76133",
   "LATITUDE": 32.6543,
   "LONGITUDE": -97.3937
 },
 {
   "CONAME": "All Saints Episcopal School",
   "STREET": "International Plz",
   "CITY": "Fort Worth",
   "STATE_NAME": "Texas",
   "ZIP": 76109,
   "NAICS": 61111004,
   "SIC": "821101",
   "EMPNUM": 15,
   "SALESVOL": 0,
   "DESC_": "All Saints Episcopal School, International Plz, Fort Worth, Texas, 76109",
   "LATITUDE": 32.688,
   "LONGITUDE": -97.4013
 },
 {
   "CONAME": "Jewish Education Agency",
   "STREET": "S Hulen St",
   "CITY": "Fort Worth",
   "STATE_NAME": "Texas",
   "ZIP": 76109,
   "NAICS": 61111007,
   "SIC": "821103",
   "EMPNUM": 25,
   "SALESVOL": 0,
   "DESC_": "Jewish Education Agency, S Hulen St, Fort Worth, Texas, 76109",
   "LATITUDE": 32.6874,
   "LONGITUDE": -97.3942
 },
 {
   "CONAME": "Hill School",
   "STREET": "Odessa Ave",
   "CITY": "Fort Worth",
   "STATE_NAME": "Texas",
   "ZIP": 76133,
   "NAICS": 61111010,
   "SIC": "821107",
   "EMPNUM": 55,
   "SALESVOL": 0,
   "DESC_": "Hill School, Odessa Ave, Fort Worth, Texas, 76133",
   "LATITUDE": 32.6769,
   "LONGITUDE": -97.3627
 },
 {
   "CONAME": "Ft Worth Independent School",
   "STREET": "Wilkie Way",
   "CITY": "Fort Worth",
   "STATE_NAME": "Texas",
   "ZIP": 76133,
   "NAICS": 61111007,
   "SIC": "821103",
   "EMPNUM": 13,
   "SALESVOL": 0,
   "DESC_": "Ft Worth Independent School, Wilkie Way, Fort Worth, Texas, 76133",
   "LATITUDE": 32.6591,
   "LONGITUDE": -97.3787
 },
 {
   "CONAME": "Hillel Academy-tarrant County",
   "STREET": "Woodway Dr",
   "CITY": "Fort Worth",
   "STATE_NAME": "Texas",
   "ZIP": 76133,
   "NAICS": 61111007,
   "SIC": "821103",
   "EMPNUM": 13,
   "SALESVOL": 0,
   "DESC_": "Hillel Academy-tarrant County, Woodway Dr, Fort Worth, Texas, 76133",
   "LATITUDE": 32.6605,
   "LONGITUDE": -97.3766
 },
 {
   "CONAME": "Westcreek Elementary School",
   "STREET": "Walton Ave",
   "CITY": "Fort Worth",
   "STATE_NAME": "Texas",
   "ZIP": 76133,
   "NAICS": 61111007,
   "SIC": "821103",
   "EMPNUM": 75,
   "SALESVOL": 0,
   "DESC_": "Westcreek Elementary School, Walton Ave, Fort Worth, Texas, 76133",
   "LATITUDE": 32.6622,
   "LONGITUDE": -97.3645
 },
 {
   "CONAME": "Wedgwood Middle School",
   "STREET": "Wilkie Way",
   "CITY": "Fort Worth",
   "STATE_NAME": "Texas",
   "ZIP": 76133,
   "NAICS": 61111007,
   "SIC": "821103",
   "EMPNUM": 104,
   "SALESVOL": 0,
   "DESC_": "Wedgwood Middle School, Wilkie Way, Fort Worth, Texas, 76133",
   "LATITUDE": 32.6591,
   "LONGITUDE": -97.3787
 },
 {
   "CONAME": "St Christopher's Epscpl School",
   "STREET": "Sw Loop 820",
   "CITY": "Fort Worth",
   "STATE_NAME": "Texas",
   "ZIP": 76133,
   "NAICS": 61111004,
   "SIC": "821101",
   "EMPNUM": 6,
   "SALESVOL": 0,
   "DESC_": "St Christopher's Epscpl School, Sw Loop 820, Fort Worth, Texas, 76133",
   "LATITUDE": 32.6717,
   "LONGITUDE": -97.3686
 },
 {
   "CONAME": "South Hills High School",
   "STREET": "Mccart Ave",
   "CITY": "Fort Worth",
   "STATE_NAME": "Texas",
   "ZIP": 76133,
   "NAICS": 61111007,
   "SIC": "821103",
   "EMPNUM": 110,
   "SALESVOL": 0,
   "DESC_": "South Hills High School, Mccart Ave, Fort Worth, Texas, 76133",
   "LATITUDE": 32.6574,
   "LONGITUDE": -97.3595
 },
 {
   "CONAME": "Alice Contereras Elementary",
   "STREET": "Lubbock Ave",
   "CITY": "Fort Worth",
   "STATE_NAME": "Texas",
   "ZIP": 76115,
   "NAICS": 61111007,
   "SIC": "821103",
   "EMPNUM": 80,
   "SALESVOL": 0,
   "DESC_": "Alice Contereras Elementary, Lubbock Ave, Fort Worth, Texas, 76115",
   "LATITUDE": 32.6863,
   "LONGITUDE": -97.3571
 },
 {
   "CONAME": "Harmony Science Academy",
   "STREET": "Westcreek Dr",
   "CITY": "Fort Worth",
   "STATE_NAME": "Texas",
   "ZIP": 76133,
   "NAICS": 61111007,
   "SIC": "821103",
   "EMPNUM": 50,
   "SALESVOL": 0,
   "DESC_": "Harmony Science Academy, Westcreek Dr, Fort Worth, Texas, 76133",
   "LATITUDE": 32.6631,
   "LONGITUDE": -97.3619
 },
 {
   "CONAME": "South Hills Elementary School",
   "STREET": "Bilglade Rd",
   "CITY": "Fort Worth",
   "STATE_NAME": "Texas",
   "ZIP": 76133,
   "NAICS": 61111007,
   "SIC": "821103",
   "EMPNUM": 82,
   "SALESVOL": 0,
   "DESC_": "South Hills Elementary School, Bilglade Rd, Fort Worth, Texas, 76133",
   "LATITUDE": 32.6771,
   "LONGITUDE": -97.36
 },
 {
   "CONAME": "Trinity Valley School",
   "STREET": "Mccart Ave",
   "CITY": "Fort Worth",
   "STATE_NAME": "Texas",
   "ZIP": 76133,
   "NAICS": 61111007,
   "SIC": "821103",
   "EMPNUM": 13,
   "SALESVOL": 0,
   "DESC_": "Trinity Valley School, Mccart Ave, Fort Worth, Texas, 76133",
   "LATITUDE": 32.6574,
   "LONGITUDE": -97.3595
 },
 {
   "CONAME": "Wedgwood Academy",
   "STREET": "Selkirk Dr",
   "CITY": "Fort Worth",
   "STATE_NAME": "Texas",
   "ZIP": 76109,
   "NAICS": 61111010,
   "SIC": "821107",
   "EMPNUM": 8,
   "SALESVOL": 0,
   "DESC_": "Wedgwood Academy, Selkirk Dr, Fort Worth, Texas, 76109",
   "LATITUDE": 32.677,
   "LONGITUDE": -97.3796
 },
 {
   "CONAME": "Primary Academy",
   "STREET": "W Loop 820 S",
   "CITY": "Fort Worth",
   "STATE_NAME": "Texas",
   "ZIP": 76126,
   "NAICS": 61111007,
   "SIC": "821103",
   "EMPNUM": 12,
   "SALESVOL": 0,
   "DESC_": "Primary Academy, W Loop 820 S, Fort Worth, Texas, 76126",
   "LATITUDE": 32.7051,
   "LONGITUDE": -97.4731
 },
 {
   "CONAME": "Fort Worth Isd",
   "STREET": "Chapin Rd",
   "CITY": "Fort Worth",
   "STATE_NAME": "Texas",
   "ZIP": 76116,
   "NAICS": 61111007,
   "SIC": "821103",
   "EMPNUM": 22,
   "SALESVOL": 0,
   "DESC_": "Fort Worth Isd, Chapin Rd, Fort Worth, Texas, 76116",
   "LATITUDE": 32.7198,
   "LONGITUDE": -97.4725
 },
 {
   "CONAME": "Waverly Park Elementary School",
   "STREET": "Cimmaron Trl",
   "CITY": "Fort Worth",
   "STATE_NAME": "Texas",
   "ZIP": 76116,
   "NAICS": 61111007,
   "SIC": "821103",
   "EMPNUM": 80,
   "SALESVOL": 0,
   "DESC_": "Waverly Park Elementary School, Cimmaron Trl, Fort Worth, Texas, 76116",
   "LATITUDE": 32.7174,
   "LONGITUDE": -97.4655
 },
 {
   "CONAME": "Leonard Middle School",
   "STREET": "Chapin Rd",
   "CITY": "Fort Worth",
   "STATE_NAME": "Texas",
   "ZIP": 76116,
   "NAICS": 61111007,
   "SIC": "821103",
   "EMPNUM": 100,
   "SALESVOL": 0,
   "DESC_": "Leonard Middle School, Chapin Rd, Fort Worth, Texas, 76116",
   "LATITUDE": 32.7198,
   "LONGITUDE": -97.4725
 },
 {
   "CONAME": "All Saints Episcopal School",
   "STREET": "Saints Cir",
   "CITY": "Fort Worth",
   "STATE_NAME": "Texas",
   "ZIP": 76108,
   "NAICS": 61111007,
   "SIC": "821103",
   "EMPNUM": 125,
   "SALESVOL": 0,
   "DESC_": "All Saints Episcopal School, Saints Cir, Fort Worth, Texas, 76108",
   "LATITUDE": 32.7318,
   "LONGITUDE": -97.4915
 },
 {
   "CONAME": "Tannahill Intermediate School",
   "STREET": "American Flyer Blvd",
   "CITY": "Fort Worth",
   "STATE_NAME": "Texas",
   "ZIP": 76108,
   "NAICS": 61111007,
   "SIC": "821103",
   "EMPNUM": 98,
   "SALESVOL": 0,
   "DESC_": "Tannahill Intermediate School, American Flyer Blvd, Fort Worth, Texas, 76108",
   "LATITUDE": 32.754,
   "LONGITUDE": -97.5122
 },
 {
   "CONAME": "Covenant Classical School",
   "STREET": "Wind Star Way",
   "CITY": "Fort Worth",
   "STATE_NAME": "Texas",
   "ZIP": 76108,
   "NAICS": 61111007,
   "SIC": "821103",
   "EMPNUM": 30,
   "SALESVOL": 0,
   "DESC_": "Covenant Classical School, Wind Star Way, Fort Worth, Texas, 76108",
   "LATITUDE": 32.7438,
   "LONGITUDE": -97.4978
 },
 {
   "CONAME": "Lower School",
   "STREET": "Saints Cir",
   "CITY": "Fort Worth",
   "STATE_NAME": "Texas",
   "ZIP": 76108,
   "NAICS": 61111007,
   "SIC": "821103",
   "EMPNUM": 13,
   "SALESVOL": 0,
   "DESC_": "Lower School, Saints Cir, Fort Worth, Texas, 76108",
   "LATITUDE": 32.7318,
   "LONGITUDE": -97.4915
 },
 {
   "CONAME": "Blue Haze Elementary School",
   "STREET": "Blue Haze Dr",
   "CITY": "Fort Worth",
   "STATE_NAME": "Texas",
   "ZIP": 76108,
   "NAICS": 61111007,
   "SIC": "821103",
   "EMPNUM": 60,
   "SALESVOL": 0,
   "DESC_": "Blue Haze Elementary School, Blue Haze Dr, Fort Worth, Texas, 76108",
   "LATITUDE": 32.7506,
   "LONGITUDE": -97.5015
 },
 {
   "CONAME": "Brewer High School",
   "STREET": "W Loop 820 N",
   "CITY": "Fort Worth",
   "STATE_NAME": "Texas",
   "ZIP": 76108,
   "NAICS": 61111007,
   "SIC": "821103",
   "EMPNUM": 130,
   "SALESVOL": 0,
   "DESC_": "Brewer High School, W Loop 820 N, Fort Worth, Texas, 76108",
   "LATITUDE": 32.7805,
   "LONGITUDE": -97.48
 },
 {
   "CONAME": "North Elementary School",
   "STREET": "Legacy Dr",
   "CITY": "Fort Worth",
   "STATE_NAME": "Texas",
   "ZIP": 76108,
   "NAICS": 61111007,
   "SIC": "821103",
   "EMPNUM": 90,
   "SALESVOL": 0,
   "DESC_": "North Elementary School, Legacy Dr, Fort Worth, Texas, 76108",
   "LATITUDE": 32.7657,
   "LONGITUDE": -97.489
 },
 {
   "CONAME": "White Settlement Senior High",
   "STREET": "W Loop 820 N",
   "CITY": "Fort Worth",
   "STATE_NAME": "Texas",
   "ZIP": 76108,
   "NAICS": 61111007,
   "SIC": "821103",
   "EMPNUM": 200,
   "SALESVOL": 0,
   "DESC_": "White Settlement Senior High, W Loop 820 N, Fort Worth, Texas, 76108",
   "LATITUDE": 32.7805,
   "LONGITUDE": -97.48
 },
 {
   "CONAME": "Safe Harbor Christian Learning",
   "STREET": "Jacksboro Hwy",
   "CITY": "Fort Worth",
   "STATE_NAME": "Texas",
   "ZIP": 76135,
   "NAICS": 61111004,
   "SIC": "821101",
   "EMPNUM": 15,
   "SALESVOL": 0,
   "DESC_": "Safe Harbor Christian Learning, Jacksboro Hwy, Fort Worth, Texas, 76135",
   "LATITUDE": 32.8534,
   "LONGITUDE": -97.5107
 },
 {
   "CONAME": "Bryson Elementary School",
   "STREET": "Old Decatur Rd",
   "CITY": "Fort Worth",
   "STATE_NAME": "Texas",
   "ZIP": 76179,
   "NAICS": 61111007,
   "SIC": "821103",
   "EMPNUM": 75,
   "SALESVOL": 0,
   "DESC_": "Bryson Elementary School, Old Decatur Rd, Fort Worth, Texas, 76179",
   "LATITUDE": 32.8778,
   "LONGITUDE": -97.3908
 },
 {
   "CONAME": "Eagle Mountain-saginaw Schools",
   "STREET": "Old Decatur Rd",
   "CITY": "Fort Worth",
   "STATE_NAME": "Texas",
   "ZIP": 76179,
   "NAICS": 61111007,
   "SIC": "821103",
   "EMPNUM": 60,
   "SALESVOL": 0,
   "DESC_": "Eagle Mountain-saginaw Schools, Old Decatur Rd, Fort Worth, Texas, 76179",
   "LATITUDE": 32.8311,
   "LONGITUDE": -97.3794
 },
 {
   "CONAME": "Boswell High School",
   "STREET": "W Bailey Boswell Rd",
   "CITY": "Fort Worth",
   "STATE_NAME": "Texas",
   "ZIP": 76179,
   "NAICS": 61111007,
   "SIC": "821103",
   "EMPNUM": 210,
   "SALESVOL": 0,
   "DESC_": "Boswell High School, W Bailey Boswell Rd, Fort Worth, Texas, 76179",
   "LATITUDE": 32.878,
   "LONGITUDE": -97.4132
 },
 {
   "CONAME": "Elkins Elementary School",
   "STREET": "Elkins School Rd",
   "CITY": "Saginaw",
   "STATE_NAME": "Texas",
   "ZIP": 76179,
   "NAICS": 61111007,
   "SIC": "821103",
   "EMPNUM": 80,
   "SALESVOL": 0,
   "DESC_": "Elkins Elementary School, Elkins School Rd, Saginaw, Texas, 76179",
   "LATITUDE": 32.865,
   "LONGITUDE": -97.4076
 },
 {
   "CONAME": "Creekview Middle School",
   "STREET": "Bob Hanger St",
   "CITY": "Fort Worth",
   "STATE_NAME": "Texas",
   "ZIP": 76179,
   "NAICS": 61111007,
   "SIC": "821103",
   "EMPNUM": 90,
   "SALESVOL": 0,
   "DESC_": "Creekview Middle School, Bob Hanger St, Fort Worth, Texas, 76179",
   "LATITUDE": 32.8586,
   "LONGITUDE": -97.4112
 },
 {
   "CONAME": "Remington Point Elementary",
   "STREET": "Old Decatur Rd",
   "CITY": "Fort Worth",
   "STATE_NAME": "Texas",
   "ZIP": 76179,
   "NAICS": 61111007,
   "SIC": "821103",
   "EMPNUM": 80,
   "SALESVOL": 0,
   "DESC_": "Remington Point Elementary, Old Decatur Rd, Fort Worth, Texas, 76179",
   "LATITUDE": 32.844,
   "LONGITUDE": -97.3837
 },
 {
   "CONAME": "Chisholm Trail High School",
   "STREET": "Nw College Dr",
   "CITY": "Fort Worth",
   "STATE_NAME": "Texas",
   "ZIP": 76179,
   "NAICS": 61111007,
   "SIC": "821103",
   "EMPNUM": 32,
   "SALESVOL": 0,
   "DESC_": "Chisholm Trail High School, Nw College Dr, Fort Worth, Texas, 76179",
   "LATITUDE": 32.8325,
   "LONGITUDE": -97.3919
 },
 {
   "CONAME": "Lake Country Christian School",
   "STREET": "Lake Country Dr",
   "CITY": "Fort Worth",
   "STATE_NAME": "Texas",
   "ZIP": 76179,
   "NAICS": 61111004,
   "SIC": "821101",
   "EMPNUM": 70,
   "SALESVOL": 0,
   "DESC_": "Lake Country Christian School, Lake Country Dr, Fort Worth, Texas, 76179",
   "LATITUDE": 32.8826,
   "LONGITUDE": -97.4277
 },
 {
   "CONAME": "Prairie Vista Middle School",
   "STREET": "Comanche Springs Dr",
   "CITY": "Fort Worth",
   "STATE_NAME": "Texas",
   "ZIP": 76131,
   "NAICS": 61111007,
   "SIC": "821103",
   "EMPNUM": 100,
   "SALESVOL": 0,
   "DESC_": "Prairie Vista Middle School, Comanche Springs Dr, Fort Worth, Texas, 76131",
   "LATITUDE": 32.8876,
   "LONGITUDE": -97.3669
 },
 {
   "CONAME": "Comanche Springs Elementary",
   "STREET": "Comanche Springs Dr",
   "CITY": "Fort Worth",
   "STATE_NAME": "Texas",
   "ZIP": 76131,
   "NAICS": 61111007,
   "SIC": "821103",
   "EMPNUM": 65,
   "SALESVOL": 0,
   "DESC_": "Comanche Springs Elementary, Comanche Springs Dr, Fort Worth, Texas, 76131",
   "LATITUDE": 32.8887,
   "LONGITUDE": -97.3653
 },
 {
   "CONAME": "Lake Point Elementary School",
   "STREET": "Park Dr",
   "CITY": "Fort Worth",
   "STATE_NAME": "Texas",
   "ZIP": 76179,
   "NAICS": 61111007,
   "SIC": "821103",
   "EMPNUM": 60,
   "SALESVOL": 0,
   "DESC_": "Lake Point Elementary School, Park Dr, Fort Worth, Texas, 76179",
   "LATITUDE": 32.8881,
   "LONGITUDE": -97.4065
 },
 {
   "CONAME": "Elkins Elementary",
   "STREET": "Wj Boaz Rd",
   "CITY": "Fort Worth",
   "STATE_NAME": "Texas",
   "ZIP": 76179,
   "NAICS": 61111007,
   "SIC": "821103",
   "EMPNUM": 59,
   "SALESVOL": 0,
   "DESC_": "Elkins Elementary, Wj Boaz Rd, Fort Worth, Texas, 76179",
   "LATITUDE": 32.8698,
   "LONGITUDE": -97.4085
 },
 {
   "CONAME": "Parkview Elementary School",
   "STREET": "Crystal Lake Dr",
   "CITY": "Fort Worth",
   "STATE_NAME": "Texas",
   "ZIP": 76179,
   "NAICS": 61111007,
   "SIC": "821103",
   "EMPNUM": 70,
   "SALESVOL": 0,
   "DESC_": "Parkview Elementary School, Crystal Lake Dr, Fort Worth, Texas, 76179",
   "LATITUDE": 32.852,
   "LONGITUDE": -97.403
 },
 {
   "CONAME": "Ed Willkie Middle School",
   "STREET": "Texas Shiner Dr",
   "CITY": "Fort Worth",
   "STATE_NAME": "Texas",
   "ZIP": 76179,
   "NAICS": 61111007,
   "SIC": "821103",
   "EMPNUM": 60,
   "SALESVOL": 0,
   "DESC_": "Ed Willkie Middle School, Texas Shiner Dr, Fort Worth, Texas, 76179",
   "LATITUDE": 32.8448,
   "LONGITUDE": -97.4162
 },
 {
   "CONAME": "Wayside Middle School",
   "STREET": "Old Decatur Rd",
   "CITY": "Fort Worth",
   "STATE_NAME": "Texas",
   "ZIP": 76179,
   "NAICS": 61111007,
   "SIC": "821103",
   "EMPNUM": 70,
   "SALESVOL": 0,
   "DESC_": "Wayside Middle School, Old Decatur Rd, Fort Worth, Texas, 76179",
   "LATITUDE": 32.8318,
   "LONGITUDE": -97.3794
 },
 {
   "CONAME": "Greenfield Elementary School",
   "STREET": "Ten Mile Bridge Rd",
   "CITY": "Fort Worth",
   "STATE_NAME": "Texas",
   "ZIP": 76135,
   "NAICS": 61111007,
   "SIC": "821103",
   "EMPNUM": 70,
   "SALESVOL": 0,
   "DESC_": "Greenfield Elementary School, Ten Mile Bridge Rd, Fort Worth, Texas, 76135",
   "LATITUDE": 32.8364,
   "LONGITUDE": -97.4137
 },